[
{
racks_installed: "4",
placement: "PARCEL",
racks: "TO BE INSTALLED SOON",
spaces: "0",
location_name: "John Muir and Skyline Blvd (Fort Funston, main lot)",
status_description: "N/A",
status: "IN_PROGRESS",
yr_installed: "2014",
status_detail: "UPCOMING_INSTALLATION",
installed_by_2: "NPS",
yr_inst: "None",
acting_agent: "NPS",
action: "5. INSTALL_BIKE_PARKING",
bike_parking: "RACK",
coordinates: {
needs_recoding: false,
longitude: "-122.500339",
latitude: "37.718951"
}
},
{
racks_installed: "0",
placement: "PARCEL",
racks: "TO BE INSTALLED SOON",
spaces: "0",
location_name: "Polo Field",
status_description: "N/A",
status: "IN_PROGRESS",
yr_installed: "2013",
status_detail: "UPCOMING_INSTALLATION",
installed_by_2: "Rec & Park",
yr_inst: "None",
acting_agent: "REC & PARK",
action: "5. INSTALL_BIKE_PARKING",
bike_parking: "RACK",
coordinates: {
needs_recoding: false,
longitude: "-122.49246",
latitude: "37.76827"
}
},
{
racks_installed: "1",
placement: "SIDEWALK",
racks: "TO BE INSTALLED SOON",
spaces: "2",
location_name: "San Francisco Federal Union",
status_description: "N/A",
status: "IN_PROGRESS",
yr_installed: "2013",
status_detail: "UPCOMING_INSTALLATION",
installed_by_2: "SFMTA",
yr_inst: "2645 OCEAN AVE",
acting_agent: "SFMTA",
action: "5. INSTALL_BIKE_PARKING",
bike_parking: "RACK",
coordinates: {
needs_recoding: false,
longitude: "-122.474188",
latitude: "37.731654"
}
},
{
racks_installed: "0",
placement: "PARCEL",
racks: "TO BE INSTALLED SOON",
spaces: "0",
location_name: "Stanyan and Waller (Waller Street bicycle learning area and farmer's market)",
status_description: "N/A",
status: "IN_PROGRESS",
yr_installed: "2014",
status_detail: "UPCOMING_INSTALLATION",
installed_by_2: "SFMTA",
yr_inst: "None",
acting_agent: "SFMTA",
action: "5. INSTALL_BIKE_PARKING",
bike_parking: "RACK",
coordinates: {
needs_recoding: false,
longitude: "-122.45359",
latitude: "37.76825"
}
},
{
racks_installed: "3",
placement: "PARKING_LANE",
racks: "TO BE INSTALLED SOON",
spaces: "6",
location_name: "Magnolia Brewery",
status_description: "N/A",
status: "IN_PROGRESS",
yr_installed: "2014",
status_detail: "UPCOMING_INSTALLATION",
installed_by_2: "SFMTA",
yr_inst: "1398 HAIGHT ST",
acting_agent: "SFMTA",
action: "5. INSTALL_BIKE_PARKING",
bike_parking: "RACK",
coordinates: {
needs_recoding: false,
longitude: "-122.44512989",
latitude: "37.77040275"
}
},
{
racks_installed: "0",
placement: "SIDEWALK",
racks: "TO BE INSTALLED SOON",
spaces: "0",
location_name: "Buchanan YMCA",
status_description: "N/A",
status: "IN_PROGRESS",
yr_installed: "n/a",
status_detail: "UPCOMING_INSTALLATION",
installed_by_2: "private (publicly accessible)",
yr_inst: "1530 BUCHANAN ST",
acting_agent: "BUSINESS",
action: "5. INSTALL_BIKE_PARKING",
bike_parking: "RACK",
coordinates: {
needs_recoding: false,
longitude: "-122.42915",
latitude: "37.784184"
}
},
{
racks_installed: "4",
placement: "SIDEWALK",
racks: "TO BE INSTALLED SOON",
spaces: "8",
location_name: "300 Ivy",
status_description: "N/A",
status: "IN_PROGRESS",
yr_installed: "2014",
status_detail: "UPCOMING_INSTALLATION",
installed_by_2: "contractor",
yr_inst: "401 GROVE ST",
acting_agent: "DEVELOPER",
action: "5. INSTALL_BIKE_PARKING",
bike_parking: "RACK",
coordinates: {
needs_recoding: false,
longitude: "-122.42356",
latitude: "37.777492"
}
},
{
racks_installed: "5",
placement: "PARKING_LANE",
racks: "TO BE INSTALLED SOON",
spaces: "10",
location_name: "Mission Cheese",
status_description: "N/A",
status: "IN_PROGRESS",
yr_installed: "2014",
status_detail: "UPCOMING_INSTALLATION",
installed_by_2: "SFMTA",
yr_inst: "736 VALENCIA ST",
acting_agent: "SFMTA",
action: "5. INSTALL_BIKE_PARKING",
bike_parking: "RACK",
coordinates: {
needs_recoding: false,
longitude: "-122.421841",
latitude: "37.761128"
}
},
{
racks_installed: "4",
placement: "PARKING_LANE",
racks: "TO BE INSTALLED SOON",
spaces: "8",
location_name: "Beretta",
status_description: "N/A",
status: "IN_PROGRESS",
yr_installed: "2013",
status_detail: "UPCOMING_INSTALLATION",
installed_by_2: "SFMTA",
yr_inst: "1199 VALENCIA ST",
acting_agent: "SFMTA",
action: "5. INSTALL_BIKE_PARKING",
bike_parking: "RACK",
coordinates: {
needs_recoding: false,
longitude: "-122.420553",
latitude: "37.753848"
}
},
{
racks_installed: "5",
placement: "PARKING_LANE",
racks: "TO BE INSTALLED SOON",
spaces: "10",
location_name: "Sycamore, The",
status_description: "N/A",
status: "IN_PROGRESS",
yr_installed: "2013",
status_detail: "UPCOMING_INSTALLATION",
installed_by_2: "SFMTA",
yr_inst: "2140 MISSION ST",
acting_agent: "SFMTA",
action: "5. INSTALL_BIKE_PARKING",
bike_parking: "RACK",
coordinates: {
needs_recoding: false,
longitude: "-122.419734",
latitude: "37.762785"
}
},
{
racks_installed: "5",
placement: "PARKING_LANE",
racks: "TO BE INSTALLED SOON",
spaces: "10",
location_name: "ActivSpace / Treat Street Bicycle Works",
status_description: "N/A",
status: "IN_PROGRESS",
yr_installed: "2013",
status_detail: "UPCOMING_INSTALLATION",
installed_by_2: "SFMTA",
yr_inst: "3150 18TH ST",
acting_agent: "SFMTA",
action: "5. INSTALL_BIKE_PARKING",
bike_parking: "RACK",
coordinates: {
needs_recoding: false,
longitude: "-122.414256",
latitude: "37.762699"
}
},
{
racks_installed: "6",
placement: "PARKING_LANE",
racks: "TO BE INSTALLED SOON",
spaces: "12",
location_name: "Universal Cafe",
status_description: "N/A",
status: "IN_PROGRESS",
yr_installed: "2013",
status_detail: "UPCOMING_INSTALLATION",
installed_by_2: "SFMTA",
yr_inst: "2814 19TH ST",
acting_agent: "SFMTA",
action: "5. INSTALL_BIKE_PARKING",
bike_parking: "RACK",
coordinates: {
needs_recoding: false,
longitude: "-122.41064704",
latitude: "37.76062897"
}
},
{
racks_installed: "7",
placement: "PARKING_LANE",
racks: "TO BE INSTALLED SOON",
spaces: "14",
location_name: "Driftwood",
status_description: "N/A",
status: "IN_PROGRESS",
yr_installed: "2013",
status_detail: "UPCOMING_INSTALLATION",
installed_by_2: "SFMTA",
yr_inst: "1225 FOLSOM ST",
acting_agent: "SFMTA",
action: "5. INSTALL_BIKE_PARKING",
bike_parking: "RACK",
coordinates: {
needs_recoding: false,
longitude: "-122.410297",
latitude: "37.774473"
}
},
{
racks_installed: "8",
placement: "PARCEL",
racks: "TO BE INSTALLED SOON",
spaces: "16",
location_name: "Alemany Farmer's Market",
status_description: "N/A",
status: "IN_PROGRESS",
yr_installed: "2014",
status_detail: "UPCOMING_INSTALLATION",
installed_by_2: "SFMTA",
yr_inst: "100 ALEMANY BLVD",
acting_agent: "SFMTA",
action: "5. INSTALL_BIKE_PARKING",
bike_parking: "RACK",
coordinates: {
needs_recoding: false,
longitude: "-122.41013968",
latitude: "37.73628325"
}
},
{
racks_installed: "6",
placement: "PARKING_LANE",
racks: "TO BE INSTALLED SOON",
spaces: "12",
location_name: "Barbary Coast / Mikkeller",
status_description: "N/A",
status: "IN_PROGRESS",
yr_installed: "2013",
status_detail: "UPCOMING_INSTALLATION",
installed_by_2: "SFMTA",
yr_inst: "34 MASON ST",
acting_agent: "SFMTA",
action: "5. INSTALL_BIKE_PARKING",
bike_parking: "RACK",
coordinates: {
needs_recoding: false,
longitude: "-122.408981",
latitude: "37.783976"
}
},
{
racks_installed: "5",
placement: "PARKING_LANE",
racks: "TO BE INSTALLED SOON",
spaces: "10",
location_name: "Shared LLC",
status_description: "N/A",
status: "IN_PROGRESS",
yr_installed: "2013",
status_detail: "UPCOMING_INSTALLATION",
installed_by_2: "SFMTA",
yr_inst: "739 BRYANT ST",
acting_agent: "SFMTA",
action: "5. INSTALL_BIKE_PARKING",
bike_parking: "RACK",
coordinates: {
needs_recoding: false,
longitude: "-122.400934",
latitude: "37.776878"
}
},
{
racks_installed: "0",
placement: "SIDEWALK",
racks: "SURVEY SCHEDULED",
spaces: "0",
location_name: "Honey Hive Gallery, The",
status_description: "N/A",
status: "IN_PROGRESS",
yr_installed: "n/a",
status_detail: "UNDER_REVIEW",
installed_by_2: "N/A",
yr_inst: "4117 JUDAH ST",
acting_agent: "SFMTA",
action: "3. FIELD_SURVEY",
bike_parking: "RACK",
coordinates: {
needs_recoding: false,
longitude: "-122.50636013",
latitude: "37.76015777"
}
},
{
racks_installed: "0",
placement: "PARKING_LANE",
racks: "SURVEY SCHEDULED",
spaces: "0",
location_name: "Celia's By the Beach",
status_description: "N/A",
status: "IN_PROGRESS",
yr_installed: "n/a",
status_detail: "UNDER_REVIEW",
installed_by_2: "N/A",
yr_inst: "4019 JUDAH ST",
acting_agent: "SFMTA",
action: "3. FIELD_SURVEY",
bike_parking: "RACK",
coordinates: {
needs_recoding: false,
longitude: "-122.505205",
latitude: "37.760244"
}
},
{
racks_installed: "0",
placement: "SIDEWALK",
racks: "SFMTA_POLICY",
spaces: "0",
location_name: "Devil's Teeth Bakery",
status_description: "REQUEST FROM VISITOR",
status: "IN_PROGRESS",
yr_installed: "n/a",
status_detail: "UNDER_REVIEW",
installed_by_2: "N/A",
yr_inst: "3876 NORIEGA ST",
acting_agent: "SFMTA",
action: "1. AGENT_TO_CONTACT",
bike_parking: "RACK",
coordinates: {
needs_recoding: false,
longitude: "-122.505012",
latitude: "37.753205"
}
},
{
racks_installed: "0",
placement: "SIDEWALK",
racks: "SURVEY SCHEDULED",
spaces: "0",
location_name: "Purusha Yoga",
status_description: "N/A",
status: "IN_PROGRESS",
yr_installed: "n/a",
status_detail: "UNDER_REVIEW",
installed_by_2: "N/A",
yr_inst: "3729 BALBOA ST",
acting_agent: "SFMTA",
action: "3. FIELD_SURVEY",
bike_parking: "RACK",
coordinates: {
needs_recoding: false,
longitude: "-122.4988668",
latitude: "37.77539588"
}
},
{
racks_installed: "0",
placement: "SIDEWALK",
racks: "SURVEY SCHEDULED",
spaces: "0",
location_name: "Bank of America",
status_description: "N/A",
status: "IN_PROGRESS",
yr_installed: "n/a",
status_detail: "UNDER_REVIEW",
installed_by_2: "N/A",
yr_inst: "3701 BALBOA ST",
acting_agent: "SFMTA",
action: "3. FIELD_SURVEY",
bike_parking: "RACK",
coordinates: {
needs_recoding: false,
longitude: "-122.498591",
latitude: "37.775408"
}
},
{
racks_installed: "1",
placement: "SIDEWALK",
racks: "MISSING_RACK",
spaces: "2",
location_name: "South Sunset Playground",
status_description: "SURVEY",
status: "IN_PROGRESS",
yr_installed: "2014",
status_detail: "UNDER_REVIEW",
installed_by_2: "SFMTA",
yr_inst: "2601 40TH AVE",
acting_agent: "SFMTA",
action: "5. INSTALL_BIKE_PARKING",
bike_parking: "RACK",
coordinates: {
needs_recoding: false,
longitude: "-122.498452",
latitude: "37.737387"
}
},
{
racks_installed: "0",
placement: "SIDEWALK",
racks: "SFMTA_POLICY",
spaces: "0",
location_name: "Shanghai Dumpling King",
status_description: "REQUEST FROM VISITOR",
status: "IN_PROGRESS",
yr_installed: "n/a",
status_detail: "UNDER_REVIEW",
installed_by_2: "N/A",
yr_inst: "3319 BALBOA ST",
acting_agent: "SFMTA",
action: "1. AGENT_TO_CONTACT",
bike_parking: "RACK",
coordinates: {
needs_recoding: false,
longitude: "-122.494492",
latitude: "37.775596"
}
},
{
racks_installed: "0",
placement: "SIDEWALK",
racks: "SFMTA_POLICY",
spaces: "0",
location_name: "Costello's Four Deuces",
status_description: "REQUEST FROM VISITOR",
status: "IN_PROGRESS",
yr_installed: "n/a",
status_detail: "UNDER_REVIEW",
installed_by_2: "N/A",
yr_inst: "2319 TARAVAL ST",
acting_agent: "SFMTA",
action: "1. AGENT_TO_CONTACT",
bike_parking: "RACK",
coordinates: {
needs_recoding: false,
longitude: "-122.491129",
latitude: "37.742123"
}
},
{
racks_installed: "0",
placement: "SIDEWALK",
racks: "SURVEY SCHEDULED",
spaces: "0",
location_name: "Richmond District Neighborhood Center",
status_description: "N/A",
status: "IN_PROGRESS",
yr_installed: "n/a",
status_detail: "UNDER_REVIEW",
installed_by_2: "N/A",
yr_inst: "741 30TH AVE",
acting_agent: "BUSINESS",
action: "2. RESPOND_TO_SFMTA",
bike_parking: "RACK",
coordinates: {
needs_recoding: false,
longitude: "-122.49028312",
latitude: "37.77509971"
}
},
{
racks_installed: "0",
placement: "SIDEWALK",
racks: "SFMTA CONTACTED",
spaces: "0",
location_name: "Sunset Recreation Center",
status_description: "N/A",
status: "IN_PROGRESS",
yr_installed: "n/a",
status_detail: "UNDER_REVIEW",
installed_by_2: "N/A",
yr_inst: "2201 LAWTON ST",
acting_agent: "BUSINESS",
action: "2. RESPOND_TO_SFMTA",
bike_parking: "RACK",
coordinates: {
needs_recoding: false,
longitude: "-122.48684699",
latitude: "37.75658875"
}
},
{
racks_installed: "0",
placement: "SIDEWALK",
racks: "SFMTA CONTACTED",
spaces: "0",
location_name: "Versus Games",
status_description: "SFMTA CONTACTED",
status: "IN_PROGRESS",
yr_installed: "n/a",
status_detail: "UNDER_REVIEW",
installed_by_2: "N/A",
yr_inst: "1716 TARAVAL ST",
acting_agent: "BUSINESS",
action: "2. RESPOND_TO_SFMTA",
bike_parking: "RACK",
coordinates: {
needs_recoding: false,
longitude: "-122.484688",
latitude: "37.742902"
}
},
{
racks_installed: "0",
placement: "SIDEWALK",
racks: "SURVEY SCHEDULED",
spaces: "0",
location_name: "Bloom",
status_description: "N/A",
status: "IN_PROGRESS",
yr_installed: "n/a",
status_detail: "UNDER_REVIEW",
installed_by_2: "N/A",
yr_inst: "1605 TARAVAL ST",
acting_agent: "SFMTA",
action: "3. FIELD_SURVEY",
bike_parking: "RACK",
coordinates: {
needs_recoding: false,
longitude: "-122.4834025",
latitude: "37.74256657"
}
},
{
racks_installed: "0",
placement: "SIDEWALK",
racks: "POTENTIAL CORRAL",
spaces: "0",
location_name: "Angelina's Deli Cafe",
status_description: "N/A",
status: "IN_PROGRESS",
yr_installed: "n/a",
status_detail: "UNDER_REVIEW",
installed_by_2: "N/A",
yr_inst: "6000 CALIFORNIA ST",
acting_agent: "SFMTA",
action: "1. AGENT_TO_CONTACT",
bike_parking: "RACK",
coordinates: {
needs_recoding: false,
longitude: "-122.481987",
latitude: "37.784224"
}
},
{
racks_installed: "0",
placement: "SIDEWALK",
racks: "POTENTIAL CORRAL",
spaces: "0",
location_name: "6001 California",
status_description: "N/A",
status: "IN_PROGRESS",
yr_installed: "n/a",
status_detail: "UNDER_REVIEW",
installed_by_2: "N/A",
yr_inst: "6001 CALIFORNIA ST",
acting_agent: "SFMTA",
action: "1. AGENT_TO_CONTACT",
bike_parking: "RACK",
coordinates: {
needs_recoding: false,
longitude: "-122.481961",
latitude: "37.783775"
}
},
{
racks_installed: "0",
placement: "SIDEWALK",
racks: "SFMTA CONTACTED",
spaces: "0",
location_name: "SFPD Taraval Station",
status_description: "N/A",
status: "IN_PROGRESS",
yr_installed: "n/a",
status_detail: "UNDER_REVIEW",
installed_by_2: "N/A",
yr_inst: "2345 24TH AVE",
acting_agent: "BUSINESS",
action: "2. RESPOND_TO_SFMTA",
bike_parking: "RACK",
coordinates: {
needs_recoding: false,
longitude: "-122.481461",
latitude: "37.743734"
}
},
{
racks_installed: "0",
placement: "SIDEWALK",
racks: "SFMTA_POLICY",
spaces: "0",
location_name: "Wah Mei Preschool",
status_description: "REQUEST FROM VISITOR",
status: "IN_PROGRESS",
yr_installed: "n/a",
status_detail: "UNDER_REVIEW",
installed_by_2: "N/A",
yr_inst: "1400 JUDAH ST",
acting_agent: "BUSINESS",
action: "2. RESPOND_TO_SFMTA",
bike_parking: "RACK",
coordinates: {
needs_recoding: false,
longitude: "-122.47736908",
latitude: "37.76186074"
}
},
{
racks_installed: "0",
placement: "SIDEWALK",
racks: "SFMTA CONTACTED",
spaces: "0",
location_name: "Kezar Pavilion",
status_description: "N/A",
status: "IN_PROGRESS",
yr_installed: "n/a",
status_detail: "UNDER_REVIEW",
installed_by_2: "N/A",
yr_inst: "755 STANYAN ST",
acting_agent: "BUSINESS",
action: "2. RESPOND_TO_SFMTA",
bike_parking: "RACK",
coordinates: {
needs_recoding: false,
longitude: "-122.476896",
latitude: "37.766355"
}
},
{
racks_installed: "0",
placement: "SIDEWALK",
racks: "SURVEY SCHEDULED",
spaces: "0",
location_name: "Jefferson CDC (SA)",
status_description: "N/A",
status: "IN_PROGRESS",
yr_installed: "n/a",
status_detail: "UNDER_REVIEW",
installed_by_2: "N/A",
yr_inst: "1325 18TH AVE",
acting_agent: "SFMTA",
action: "3. FIELD_SURVEY",
bike_parking: "RACK",
coordinates: {
needs_recoding: false,
longitude: "-122.47654112",
latitude: "37.76296657"
}
},
{
racks_installed: "1",
placement: "SIDEWALK",
racks: "SURVEYED ",
spaces: "0",
location_name: "Temple Baptist Church",
status_description: "STENCILED",
status: "IN_PROGRESS",
yr_installed: "2014",
status_detail: "UNDER_REVIEW",
installed_by_2: "SFMTA",
yr_inst: "3355 19TH AVE",
acting_agent: "SFMTA",
action: "4. REVIEW_AND_APPROVALS",
bike_parking: "RACK",
coordinates: {
needs_recoding: false,
longitude: "-122.475241",
latitude: "37.728502"
}
},
{
racks_installed: "0",
placement: "SIDEWALK",
racks: "SURVEY SCHEDULED",
spaces: "0",
location_name: "Heartbaker Bakery",
status_description: "N/A",
status: "IN_PROGRESS",
yr_installed: "n/a",
status_detail: "UNDER_REVIEW",
installed_by_2: "N/A",
yr_inst: "1408 CLEMENT ST",
acting_agent: "SFMTA",
action: "3. FIELD_SURVEY",
bike_parking: "RACK",
coordinates: {
needs_recoding: false,
longitude: "-122.474399",
latitude: "37.782751"
}
},
{
racks_installed: "0",
placement: "PARKING_LANE",
racks: "SFMTA CONTACTED",
spaces: "0",
location_name: "Internet Archive",
status_description: "N/A",
status: "IN_PROGRESS",
yr_installed: "n/a",
status_detail: "UNDER_REVIEW",
installed_by_2: "N/A",
yr_inst: "300 FUNSTON AVE",
acting_agent: "BUSINESS",
action: "2. RESPOND_TO_SFMTA",
bike_parking: "RACK",
coordinates: {
needs_recoding: false,
longitude: "-122.471711",
latitude: "37.782308"
}
},
{
racks_installed: "0",
placement: "SIDEWALK",
racks: "SFMTA_POLICY",
spaces: "0",
location_name: "St. Anne of the Sunset Catholic Church",
status_description: "REQUEST FROM VISITOR",
status: "IN_PROGRESS",
yr_installed: "n/a",
status_detail: "UNDER_REVIEW",
installed_by_2: "N/A",
yr_inst: "850 JUDAH ST",
acting_agent: "SFMTA",
action: "1. AGENT_TO_CONTACT",
bike_parking: "RACK",
coordinates: {
needs_recoding: false,
longitude: "-122.47128",
latitude: "37.762226"
}
},
{
racks_installed: "0",
placement: "SIDEWALK",
racks: "SFMTA_POLICY",
spaces: "0",
location_name: "Oceanview Laundromat",
status_description: "SUPPLY MEETS DEMAND",
status: "IN_PROGRESS",
yr_installed: "n/a",
status_detail: "UNDER_REVIEW",
installed_by_2: "N/A",
yr_inst: "4089 19TH AVE",
acting_agent: "SFMTA",
action: "1. AGENT_TO_CONTACT",
bike_parking: "RACK",
coordinates: {
needs_recoding: false,
longitude: "-122.470277",
latitude: "37.714472"
}
},
{
racks_installed: "0",
placement: "SIDEWALK",
racks: "SFMTA CONTACTED",
spaces: "0",
location_name: "Clay Oven Indian Restaurant",
status_description: "N/A",
status: "IN_PROGRESS",
yr_installed: "n/a",
status_detail: "UNDER_REVIEW",
installed_by_2: "N/A",
yr_inst: "385 WEST PORTAL AVE",
acting_agent: "BUSINESS",
action: "2. RESPOND_TO_SFMTA",
bike_parking: "RACK",
coordinates: {
needs_recoding: false,
longitude: "-122.470178",
latitude: "37.736619"
}
},
{
racks_installed: "0",
placement: "SIDEWALK",
racks: "SFMTA_POLICY",
spaces: "0",
location_name: "The Dubliner",
status_description: "SUPPLY MEETS DEMAND",
status: "IN_PROGRESS",
yr_installed: "n/a",
status_detail: "UNDER_REVIEW",
installed_by_2: "N/A",
yr_inst: "328 WEST PORTAL AVE",
acting_agent: "SFMTA",
action: "1. AGENT_TO_CONTACT",
bike_parking: "RACK",
coordinates: {
needs_recoding: false,
longitude: "-122.469714",
latitude: "37.737803"
}
},
{
racks_installed: "0",
placement: "SIDEWALK",
racks: "SURVEY SCHEDULED",
spaces: "0",
location_name: "Thriveability Yoga Studio",
status_description: "N/A",
status: "IN_PROGRESS",
yr_installed: "n/a",
status_detail: "UNDER_REVIEW",
installed_by_2: "N/A",
yr_inst: "300 WEST PORTAL AVE",
acting_agent: "SFMTA",
action: "3. FIELD_SURVEY",
bike_parking: "RACK",
coordinates: {
needs_recoding: false,
longitude: "-122.469444",
latitude: "37.738032"
}
},
{
racks_installed: "0",
placement: "SIDEWALK",
racks: "SFMTA CONTACTED",
spaces: "0",
location_name: "Norman's Liquor and Grocery",
status_description: "N/A",
status: "IN_PROGRESS",
yr_installed: "n/a",
status_detail: "UNDER_REVIEW",
installed_by_2: "N/A",
yr_inst: "733 RANDOLPH ST",
acting_agent: "BUSINESS",
action: "2. RESPOND_TO_SFMTA",
bike_parking: "RACK",
coordinates: {
needs_recoding: false,
longitude: "-122.469394",
latitude: "37.71408"
}
},
{
racks_installed: "0",
placement: "SIDEWALK",
racks: "SFMTA_POLICY",
spaces: "0",
location_name: "Tanning Salon",
status_description: "REQUEST FROM VISITOR",
status: "IN_PROGRESS",
yr_installed: "n/a",
status_detail: "UNDER_REVIEW",
installed_by_2: "N/A",
yr_inst: "2377 OCEAN AVE",
acting_agent: "SFMTA",
action: "1. AGENT_TO_CONTACT",
bike_parking: "RACK",
coordinates: {
needs_recoding: false,
longitude: "-122.469356",
latitude: "37.729744"
}
},
{
racks_installed: "0",
placement: "SIDEWALK",
racks: "SFMTA CONTACTED",
spaces: "0",
location_name: "Walter Adams Framing",
status_description: "N/A",
status: "IN_PROGRESS",
yr_installed: "n/a",
status_detail: "UNDER_REVIEW",
installed_by_2: "N/A",
yr_inst: "243 WEST PORTAL AVE",
acting_agent: "BUSINESS",
action: "2. RESPOND_TO_SFMTA",
bike_parking: "RACK",
coordinates: {
needs_recoding: false,
longitude: "-122.468177",
latitude: "37.738325"
}
},
{
racks_installed: "0",
placement: "SIDEWALK",
racks: "SFMTA CONTACTED",
spaces: "0",
location_name: "Cortez Cleaners",
status_description: "N/A",
status: "IN_PROGRESS",
yr_installed: "n/a",
status_detail: "UNDER_REVIEW",
installed_by_2: "N/A",
yr_inst: "520 RANDOLPH ST",
acting_agent: "BUSINESS",
action: "2. RESPOND_TO_SFMTA",
bike_parking: "RACK",
coordinates: {
needs_recoding: false,
longitude: "-122.467506",
latitude: "37.714517"
}
},
{
racks_installed: "0",
placement: "SIDEWALK",
racks: "SFMTA_POLICY",
spaces: "0",
location_name: "West Portal Cleaning Center",
status_description: "REQUEST FROM VISITOR",
status: "IN_PROGRESS",
yr_installed: "n/a",
status_detail: "UNDER_REVIEW",
installed_by_2: "N/A",
yr_inst: "161 WEST PORTAL AVE",
acting_agent: "SFMTA",
action: "1. AGENT_TO_CONTACT",
bike_parking: "RACK",
coordinates: {
needs_recoding: false,
longitude: "-122.467365",
latitude: "37.739009"
}
},
{
racks_installed: "0",
placement: "SIDEWALK",
racks: "SFMTA_POLICY",
spaces: "0",
location_name: "Face to Face",
status_description: "REQUEST FROM VISITOR",
status: "IN_PROGRESS",
yr_installed: "n/a",
status_detail: "UNDER_REVIEW",
installed_by_2: "N/A",
yr_inst: "157 WEST PORTAL AVE",
acting_agent: "SFMTA",
action: "1. AGENT_TO_CONTACT",
bike_parking: "RACK",
coordinates: {
needs_recoding: false,
longitude: "-122.467365",
latitude: "37.739009"
}
},
{
racks_installed: "0",
placement: "SIDEWALK",
racks: "SFMTA_POLICY",
spaces: "0",
location_name: "Chase Bank",
status_description: "REQUEST FROM VISITOR",
status: "IN_PROGRESS",
yr_installed: "n/a",
status_detail: "UNDER_REVIEW",
installed_by_2: "N/A",
yr_inst: "98 WEST PORTAL AVE",
acting_agent: "SFMTA",
action: "1. AGENT_TO_CONTACT",
bike_parking: "RACK",
coordinates: {
needs_recoding: false,
longitude: "-122.467059",
latitude: "37.740068"
}
},
{
racks_installed: "0",
placement: "SIDEWALK",
racks: "SFMTA_POLICY",
spaces: "0",
location_name: "Radio Shack ",
status_description: "REQUEST FROM VISITOR",
status: "IN_PROGRESS",
yr_installed: "n/a",
status_detail: "UNDER_REVIEW",
installed_by_2: "N/A",
yr_inst: "123 WEST PORTAL AVE",
acting_agent: "SFMTA",
action: "1. AGENT_TO_CONTACT",
bike_parking: "RACK",
coordinates: {
needs_recoding: false,
longitude: "-122.46698",
latitude: "37.739334"
}
},
{
racks_installed: "0",
placement: "SIDEWALK",
racks: "SFMTA_POLICY",
spaces: "0",
location_name: "GG's Flower Shop",
status_description: "REQUEST FROM VISITOR",
status: "IN_PROGRESS",
yr_installed: "n/a",
status_detail: "UNDER_REVIEW",
installed_by_2: "N/A",
yr_inst: "111 WEST PORTAL AVE",
acting_agent: "SFMTA",
action: "1. AGENT_TO_CONTACT",
bike_parking: "RACK",
coordinates: {
needs_recoding: false,
longitude: "-122.46698",
latitude: "37.739334"
}
},
{
racks_installed: "0",
placement: "SIDEWALK",
racks: "SFMTA CONTACTED",
spaces: "0",
location_name: "Bookshop West Portal ",
status_description: "N/A",
status: "IN_PROGRESS",
yr_installed: "n/a",
status_detail: "UNDER_REVIEW",
installed_by_2: "N/A",
yr_inst: "80 WEST PORTAL AVE",
acting_agent: "BUSINESS",
action: "2. RESPOND_TO_SFMTA",
bike_parking: "RACK",
coordinates: {
needs_recoding: false,
longitude: "-122.466963",
latitude: "37.740149"
}
},
{
racks_installed: "0",
placement: "SIDEWALK",
racks: "SFMTA_POLICY",
spaces: "0",
location_name: "Market & Rye",
status_description: "REQUEST FROM VISITOR",
status: "IN_PROGRESS",
yr_installed: "n/a",
status_detail: "UNDER_REVIEW",
installed_by_2: "N/A",
yr_inst: "68 WEST PORTAL AVE",
acting_agent: "SFMTA",
action: "1. AGENT_TO_CONTACT",
bike_parking: "RACK",
coordinates: {
needs_recoding: false,
longitude: "-122.466846",
latitude: "37.740248"
}
},
{
racks_installed: "0",
placement: "SIDEWALK",
racks: "SFMTA_POLICY",
spaces: "0",
location_name: "?",
status_description: "REQUEST FROM VISITOR",
status: "IN_PROGRESS",
yr_installed: "n/a",
status_detail: "UNDER_REVIEW",
installed_by_2: "N/A",
yr_inst: "62 WEST PORTAL AVE",
acting_agent: "SFMTA",
action: "1. AGENT_TO_CONTACT",
bike_parking: "RACK",
coordinates: {
needs_recoding: false,
longitude: "-122.466846",
latitude: "37.740248"
}
},
{
racks_installed: "0",
placement: "SIDEWALK",
racks: "SFMTA_POLICY",
spaces: "0",
location_name: "Grateful Head ",
status_description: "REQUEST FROM VISITOR",
status: "IN_PROGRESS",
yr_installed: "n/a",
status_detail: "UNDER_REVIEW",
installed_by_2: "N/A",
yr_inst: "103 WEST PORTAL AVE",
acting_agent: "SFMTA",
action: "1. AGENT_TO_CONTACT",
bike_parking: "RACK",
coordinates: {
needs_recoding: false,
longitude: "-122.466836",
latitude: "37.739447"
}
},
{
racks_installed: "0",
placement: "SIDEWALK",
racks: "SFMTA CONTACTED ",
spaces: "0",
location_name: "Bursa",
status_description: "N/A",
status: "IN_PROGRESS",
yr_installed: "n/a",
status_detail: "UNDER_REVIEW",
installed_by_2: "N/A",
yr_inst: "60 WEST PORTAL AVE",
acting_agent: "BUSINESS",
action: "2. RESPOND_TO_SFMTA",
bike_parking: "RACK",
coordinates: {
needs_recoding: false,
longitude: "-122.466748",
latitude: "37.740363"
}
},
{
racks_installed: "0",
placement: "SIDEWALK",
racks: "SFMTA_POLICY",
spaces: "0",
location_name: "Daily Health Food & Deli",
status_description: "REQUEST FROM VISITOR",
status: "IN_PROGRESS",
yr_installed: "n/a",
status_detail: "UNDER_REVIEW",
installed_by_2: "N/A",
yr_inst: "1235 09TH AVE",
acting_agent: "SFMTA",
action: "1. AGENT_TO_CONTACT",
bike_parking: "RACK",
coordinates: {
needs_recoding: false,
longitude: "-122.466727",
latitude: "37.765269"
}
},
{
racks_installed: "0",
placement: "SIDEWALK",
racks: "SFMTA_POLICY",
spaces: "0",
location_name: "Jenny's Burgers",
status_description: "REQUEST FROM VISITOR",
status: "IN_PROGRESS",
yr_installed: "n/a",
status_detail: "UNDER_REVIEW",
installed_by_2: "N/A",
yr_inst: "1233 09TH AVE",
acting_agent: "SFMTA",
action: "1. AGENT_TO_CONTACT",
bike_parking: "RACK",
coordinates: {
needs_recoding: false,
longitude: "-122.466727",
latitude: "37.765269"
}
},
{
racks_installed: "0",
placement: "SIDEWALK",
racks: "SFMTA_POLICY",
spaces: "0",
location_name: "Gordo Taqueria",
status_description: "REQUEST FROM VISITOR",
status: "IN_PROGRESS",
yr_installed: "n/a",
status_detail: "UNDER_REVIEW",
installed_by_2: "N/A",
yr_inst: "1239 09TH AVE",
acting_agent: "SFMTA",
action: "1. AGENT_TO_CONTACT",
bike_parking: "RACK",
coordinates: {
needs_recoding: false,
longitude: "-122.466722",
latitude: "37.765201"
}
},
{
racks_installed: "0",
placement: "SIDEWALK",
racks: "SFMTA CONTACTED",
spaces: "0",
location_name: "Marnee Thai",
status_description: "N/A",
status: "IN_PROGRESS",
yr_installed: "n/a",
status_detail: "UNDER_REVIEW",
installed_by_2: "N/A",
yr_inst: "1243 09TH AVE",
acting_agent: "BUSINESS",
action: "2. RESPOND_TO_SFMTA",
bike_parking: "RACK",
coordinates: {
needs_recoding: false,
longitude: "-122.466717",
latitude: "37.765132"
}
},
{
racks_installed: "0",
placement: "SIDEWALK",
racks: "SFMTA CONTACTED",
spaces: "0",
location_name: "Transcendental Meditation",
status_description: "N/A",
status: "IN_PROGRESS",
yr_installed: "n/a",
status_detail: "UNDER_REVIEW",
installed_by_2: "N/A",
yr_inst: "1245 09TH AVE",
acting_agent: "BUSINESS",
action: "2. RESPOND_TO_SFMTA",
bike_parking: "RACK",
coordinates: {
needs_recoding: false,
longitude: "-122.466712",
latitude: "37.765064"
}
},
{
racks_installed: "0",
placement: "SIDEWALK",
racks: "SFMTA_POLICY",
spaces: "0",
location_name: "Vacation Rental Apartments by Golden Gate Park",
status_description: "REQUEST FROM VISITOR",
status: "IN_PROGRESS",
yr_installed: "n/a",
status_detail: "UNDER_REVIEW",
installed_by_2: "N/A",
yr_inst: "1257 09TH AVE",
acting_agent: "SFMTA",
action: "1. AGENT_TO_CONTACT",
bike_parking: "RACK",
coordinates: {
needs_recoding: false,
longitude: "-122.466698",
latitude: "37.764858"
}
},
{
racks_installed: "0",
placement: "SIDEWALK",
racks: "SFMTA_POLICY",
spaces: "0",
location_name: "San Francisco Honda Ninth Avenue Service Center",
status_description: "REQUEST FROM VISITOR",
status: "IN_PROGRESS",
yr_installed: "n/a",
status_detail: "UNDER_REVIEW",
installed_by_2: "N/A",
yr_inst: "1259 09TH AVE",
acting_agent: "SFMTA",
action: "1. AGENT_TO_CONTACT",
bike_parking: "RACK",
coordinates: {
needs_recoding: false,
longitude: "-122.466691",
latitude: "37.764755"
}
},
{
racks_installed: "0",
placement: "SIDEWALK",
racks: "SFMTA_POLICY",
spaces: "0",
location_name: "Kate McIntyre State Farm",
status_description: "REQUEST FROM VISITOR",
status: "IN_PROGRESS",
yr_installed: "n/a",
status_detail: "UNDER_REVIEW",
installed_by_2: "N/A",
yr_inst: "1215 09TH AVE",
acting_agent: "SFMTA",
action: "1. AGENT_TO_CONTACT",
bike_parking: "RACK",
coordinates: {
needs_recoding: false,
longitude: "-122.466601",
latitude: "37.765653"
}
},
{
racks_installed: "0",
placement: "SIDEWALK",
racks: "SFMTA_POLICY",
spaces: "0",
location_name: "Park Gyros",
status_description: "REQUEST FROM VISITOR",
status: "IN_PROGRESS",
yr_installed: "n/a",
status_detail: "UNDER_REVIEW",
installed_by_2: "N/A",
yr_inst: "1201 09TH AVE",
acting_agent: "SFMTA",
action: "1. AGENT_TO_CONTACT",
bike_parking: "RACK",
coordinates: {
needs_recoding: false,
longitude: "-122.466601",
latitude: "37.765653"
}
},
{
racks_installed: "0",
placement: "SIDEWALK",
racks: "SFMTA_POLICY",
spaces: "0",
location_name: "Pierre's Auto Body ",
status_description: "REQUEST FROM VISITOR",
status: "IN_PROGRESS",
yr_installed: "n/a",
status_detail: "UNDER_REVIEW",
installed_by_2: "N/A",
yr_inst: "1349 09TH AVE",
acting_agent: "SFMTA",
action: "1. AGENT_TO_CONTACT",
bike_parking: "RACK",
coordinates: {
needs_recoding: false,
longitude: "-122.466577",
latitude: "37.763127"
}
},
{
racks_installed: "0",
placement: "SIDEWALK",
racks: "SFMTA CONTACTED",
spaces: "0",
location_name: "Pilgrim Community Church",
status_description: "N/A",
status: "IN_PROGRESS",
yr_installed: "n/a",
status_detail: "UNDER_REVIEW",
installed_by_2: "N/A",
yr_inst: "400 RANDOLPH ST",
acting_agent: "BUSINESS",
action: "2. RESPOND_TO_SFMTA",
bike_parking: "RACK",
coordinates: {
needs_recoding: false,
longitude: "-122.466563",
latitude: "37.714524"
}
},
{
racks_installed: "0",
placement: "SIDEWALK",
racks: "SFMTA_POLICY",
spaces: "0",
location_name: "West Portal Daily",
status_description: "REQUEST FROM VISITOR",
status: "IN_PROGRESS",
yr_installed: "n/a",
status_detail: "UNDER_REVIEW",
installed_by_2: "N/A",
yr_inst: "36 WEST PORTAL AVE",
acting_agent: "SFMTA",
action: "1. AGENT_TO_CONTACT",
bike_parking: "RACK",
coordinates: {
needs_recoding: false,
longitude: "-122.466552",
latitude: "37.740545"
}
},
{
racks_installed: "0",
placement: "SIDEWALK",
racks: "SURVEY SCHEDULED",
spaces: "0",
location_name: "Papenhausen Hardware",
status_description: "N/A",
status: "IN_PROGRESS",
yr_installed: "n/a",
status_detail: "UNDER_REVIEW",
installed_by_2: "N/A",
yr_inst: "32 WEST PORTAL AVE",
acting_agent: "SFMTA",
action: "3. FIELD_SURVEY",
bike_parking: "RACK",
coordinates: {
needs_recoding: false,
longitude: "-122.466497",
latitude: "37.740598"
}
},
{
racks_installed: "0",
placement: "SIDEWALK",
racks: "SFMTA_POLICY",
spaces: "0",
location_name: "Fresca",
status_description: "REQUEST FROM VISITOR",
status: "IN_PROGRESS",
yr_installed: "n/a",
status_detail: "UNDER_REVIEW",
installed_by_2: "N/A",
yr_inst: "24 WEST PORTAL AVE",
acting_agent: "SFMTA",
action: "1. AGENT_TO_CONTACT",
bike_parking: "RACK",
coordinates: {
needs_recoding: false,
longitude: "-122.4664155",
latitude: "37.7406782"
}
},
{
racks_installed: "0",
placement: "SIDEWALK",
racks: "SFMTA CONTACTED",
spaces: "0",
location_name: "West Portal Family Dentistry",
status_description: "N/A",
status: "IN_PROGRESS",
yr_installed: "n/a",
status_detail: "UNDER_REVIEW",
installed_by_2: "N/A",
yr_inst: "26 WEST PORTAL AVE",
acting_agent: "BUSINESS",
action: "2. RESPOND_TO_SFMTA",
bike_parking: "RACK",
coordinates: {
needs_recoding: false,
longitude: "-122.466416",
latitude: "37.740678"
}
},
{
racks_installed: "0",
placement: "SIDEWALK",
racks: "SFMTA_POLICY",
spaces: "0",
location_name: "Mozarella Di Bufala Pizza",
status_description: "REQUEST FROM VISITOR",
status: "IN_PROGRESS",
yr_installed: "n/a",
status_detail: "UNDER_REVIEW",
installed_by_2: "N/A",
yr_inst: "69 WEST PORTAL AVE",
acting_agent: "SFMTA",
action: "1. AGENT_TO_CONTACT",
bike_parking: "RACK",
coordinates: {
needs_recoding: false,
longitude: "-122.46636617",
latitude: "37.73996228"
}
},
{
racks_installed: "0",
placement: "SIDEWALK",
racks: "SFMTA_POLICY",
spaces: "0",
location_name: "West Portal Shoe Service",
status_description: "REQUEST FROM VISITOR",
status: "IN_PROGRESS",
yr_installed: "n/a",
status_detail: "UNDER_REVIEW",
installed_by_2: "N/A",
yr_inst: "79 WEST PORTAL AVE",
acting_agent: "SFMTA",
action: "1. AGENT_TO_CONTACT",
bike_parking: "RACK",
coordinates: {
needs_recoding: false,
longitude: "-122.46630857",
latitude: "37.73976604"
}
},
{
racks_installed: "0",
placement: "SIDEWALK",
racks: "SFMTA_POLICY",
spaces: "0",
location_name: "Goodwill Boutique",
status_description: "REQUEST FROM VISITOR",
status: "IN_PROGRESS",
yr_installed: "n/a",
status_detail: "UNDER_REVIEW",
installed_by_2: "N/A",
yr_inst: "61 WEST PORTAL AVE",
acting_agent: "SFMTA",
action: "1. AGENT_TO_CONTACT",
bike_parking: "RACK",
coordinates: {
needs_recoding: false,
longitude: "-122.46623082",
latitude: "37.74001551"
}
},
{
racks_installed: "0",
placement: "SIDEWALK",
racks: "SFMTA_POLICY",
spaces: "0",
location_name: "Supercuts",
status_description: "REQUEST FROM VISITOR",
status: "IN_PROGRESS",
yr_installed: "n/a",
status_detail: "UNDER_REVIEW",
installed_by_2: "N/A",
yr_inst: "59 WEST PORTAL AVE",
acting_agent: "SFMTA",
action: "1. AGENT_TO_CONTACT",
bike_parking: "RACK",
coordinates: {
needs_recoding: false,
longitude: "-122.46623082",
latitude: "37.74001551"
}
},
{
racks_installed: "0",
placement: "SIDEWALK",
racks: "SFMTA CONTACTED",
spaces: "0",
location_name: "Misdirections Magic Shop",
status_description: "N/A",
status: "IN_PROGRESS",
yr_installed: "n/a",
status_detail: "UNDER_REVIEW",
installed_by_2: "N/A",
yr_inst: "1236 09TH AVE",
acting_agent: "BUSINESS",
action: "2. RESPOND_TO_SFMTA",
bike_parking: "RACK",
coordinates: {
needs_recoding: false,
longitude: "-122.466067",
latitude: "37.765259"
}
},
{
racks_installed: "0",
placement: "SIDEWALK",
racks: "SFMTA_POLICY",
spaces: "0",
location_name: "Sunset Stationers",
status_description: "REQUEST FROM VISITOR",
status: "IN_PROGRESS",
yr_installed: "n/a",
status_detail: "UNDER_REVIEW",
installed_by_2: "N/A",
yr_inst: "1248 09TH AVE",
acting_agent: "SFMTA",
action: "1. AGENT_TO_CONTACT",
bike_parking: "RACK",
coordinates: {
needs_recoding: false,
longitude: "-122.46605",
latitude: "37.765019"
}
},
{
racks_installed: "0",
placement: "SIDEWALK",
racks: "SFMTA CONTACTED",
spaces: "0",
location_name: "Roti Indian Bistro",
status_description: "N/A",
status: "IN_PROGRESS",
yr_installed: "n/a",
status_detail: "UNDER_REVIEW",
installed_by_2: "N/A",
yr_inst: "53 WEST PORTAL AVE",
acting_agent: "BUSINESS",
action: "2. RESPOND_TO_SFMTA",
bike_parking: "RACK",
coordinates: {
needs_recoding: false,
longitude: "-122.46604744",
latitude: "37.74007218"
}
},
{
racks_installed: "0",
placement: "SIDEWALK",
racks: "SFMTA_POLICY",
spaces: "0",
location_name: "Alaya",
status_description: "REQUEST FROM VISITOR",
status: "IN_PROGRESS",
yr_installed: "n/a",
status_detail: "UNDER_REVIEW",
installed_by_2: "N/A",
yr_inst: "1256 09TH AVE",
acting_agent: "SFMTA",
action: "1. AGENT_TO_CONTACT",
bike_parking: "RACK",
coordinates: {
needs_recoding: false,
longitude: "-122.466041",
latitude: "37.764884"
}
},
{
racks_installed: "0",
placement: "SIDEWALK",
racks: "SFMTA_POLICY",
spaces: "0",
location_name: "Strybing Arboretum Society",
status_description: "REQUEST FROM VISITOR",
status: "IN_PROGRESS",
yr_installed: "n/a",
status_detail: "UNDER_REVIEW",
installed_by_2: "N/A",
yr_inst: "1260 09TH AVE",
acting_agent: "SFMTA",
action: "1. AGENT_TO_CONTACT",
bike_parking: "RACK",
coordinates: {
needs_recoding: false,
longitude: "-122.466036",
latitude: "37.764815"
}
},
{
racks_installed: "0",
placement: "SIDEWALK",
racks: "SFMTA_POLICY",
spaces: "0",
location_name: "Tibors Fine Jewelry",
status_description: "REQUEST FROM VISITOR",
status: "IN_PROGRESS",
yr_installed: "n/a",
status_detail: "UNDER_REVIEW",
installed_by_2: "N/A",
yr_inst: "29 WEST PORTAL AVE",
acting_agent: "SFMTA",
action: "1. AGENT_TO_CONTACT",
bike_parking: "RACK",
coordinates: {
needs_recoding: false,
longitude: "-122.46585218",
latitude: "37.74036449"
}
},
{
racks_installed: "0",
placement: "SIDEWALK",
racks: "SFMTA_POLICY",
spaces: "0",
location_name: "Eezy Freezy",
status_description: "REQUEST FROM VISITOR",
status: "IN_PROGRESS",
yr_installed: "n/a",
status_detail: "UNDER_REVIEW",
installed_by_2: "N/A",
yr_inst: "25 WEST PORTAL AVE",
acting_agent: "SFMTA",
action: "1. AGENT_TO_CONTACT",
bike_parking: "RACK",
coordinates: {
needs_recoding: false,
longitude: "-122.46585218",
latitude: "37.74036449"
}
},
{
racks_installed: "0",
placement: "SIDEWALK",
racks: "SFMTA CONTACTED",
spaces: "0",
location_name: "Muriel Leff Mini-Park",
status_description: "N/A",
status: "IN_PROGRESS",
yr_installed: "n/a",
status_detail: "UNDER_REVIEW",
installed_by_2: "N/A",
yr_inst: "450 07TH AVE",
acting_agent: "BUSINESS",
action: "2. RESPOND_TO_SFMTA",
bike_parking: "RACK",
coordinates: {
needs_recoding: false,
longitude: "-122.46559413",
latitude: "37.77978842"
}
},
{
racks_installed: "0",
placement: "SIDEWALK",
racks: "SFMTA_POLICY",
spaces: "0",
location_name: "Brotherhood Market and Deli",
status_description: "SUPPLY MEETS DEMAND",
status: "IN_PROGRESS",
yr_installed: "n/a",
status_detail: "UNDER_REVIEW",
installed_by_2: "N/A",
yr_inst: "301 RANDOLPH ST",
acting_agent: "SFMTA",
action: "1. AGENT_TO_CONTACT",
bike_parking: "RACK",
coordinates: {
needs_recoding: false,
longitude: "-122.465531",
latitude: "37.714139"
}
},
{
racks_installed: "0",
placement: "SIDEWALK",
racks: "SFMTA_POLICY",
spaces: "0",
location_name: "Laundromat",
status_description: "SUPPLY MEETS DEMAND",
status: "IN_PROGRESS",
yr_installed: "n/a",
status_detail: "UNDER_REVIEW",
installed_by_2: "N/A",
yr_inst: "250 RANDOLPH ST",
acting_agent: "SFMTA",
action: "1. AGENT_TO_CONTACT",
bike_parking: "RACK",
coordinates: {
needs_recoding: false,
longitude: "-122.465111",
latitude: "37.714447"
}
},
{
racks_installed: "0",
placement: "SIDEWALK",
racks: "SURVEY SCHEDULED",
spaces: "0",
location_name: "Peabody Elementary School",
status_description: "N/A",
status: "IN_PROGRESS",
yr_installed: "n/a",
status_detail: "UNDER_REVIEW",
installed_by_2: "N/A",
yr_inst: "251 06TH AVE",
acting_agent: "SFMTA",
action: "3. FIELD_SURVEY",
bike_parking: "RACK",
coordinates: {
needs_recoding: false,
longitude: "-122.464794",
latitude: "37.783934"
}
},
{
racks_installed: "0",
placement: "SIDEWALK",
racks: "SFMTA CONTACTED",
spaces: "0",
location_name: "SFPD Richmond Station",
status_description: "N/A",
status: "IN_PROGRESS",
yr_installed: "n/a",
status_detail: "UNDER_REVIEW",
installed_by_2: "N/A",
yr_inst: "461 06TH AVE",
acting_agent: "BUSINESS",
action: "2. RESPOND_TO_SFMTA",
bike_parking: "RACK",
coordinates: {
needs_recoding: false,
longitude: "-122.464749",
latitude: "37.780001"
}
},
{
racks_installed: "0",
placement: "SIDEWALK",
racks: "SURVEY SCHEDULED",
spaces: "0",
location_name: "Little Vietnam Cafe",
status_description: "N/A",
status: "IN_PROGRESS",
yr_installed: "n/a",
status_detail: "UNDER_REVIEW",
installed_by_2: "N/A",
yr_inst: "309 06TH AVE",
acting_agent: "SFMTA",
action: "3. FIELD_SURVEY",
bike_parking: "RACK",
coordinates: {
needs_recoding: false,
longitude: "-122.46458189",
latitude: "37.78269264"
}
},
{
racks_installed: "0",
placement: "SIDEWALK",
racks: "SURVEY SCHEDULED",
spaces: "0",
location_name: "Ro Caf√©",
status_description: "N/A",
status: "IN_PROGRESS",
yr_installed: "n/a",
status_detail: "UNDER_REVIEW",
installed_by_2: "N/A",
yr_inst: "110 06TH AVE #6",
acting_agent: "SFMTA",
action: "3. FIELD_SURVEY",
bike_parking: "RACK",
coordinates: {
needs_recoding: false,
longitude: "-122.464499",
latitude: "37.786435"
}
},
{
racks_installed: "0",
placement: "SIDEWALK",
racks: "SURVEY SCHEDULED",
spaces: "0",
location_name: "Frank McCoppin (SA) CDC",
status_description: "N/A",
status: "IN_PROGRESS",
yr_installed: "n/a",
status_detail: "UNDER_REVIEW",
installed_by_2: "N/A",
yr_inst: "651 06TH AVE",
acting_agent: "SFMTA",
action: "3. FIELD_SURVEY",
bike_parking: "RACK",
coordinates: {
needs_recoding: false,
longitude: "-122.46448",
latitude: "37.776311"
}
},
{
racks_installed: "0",
placement: "SIDEWALK",
racks: "SFMTA CONTACTED",
spaces: "0",
location_name: "West Portal School",
status_description: "N/A",
status: "IN_PROGRESS",
yr_installed: "n/a",
status_detail: "UNDER_REVIEW",
installed_by_2: "N/A",
yr_inst: "5 LENOX WAY",
acting_agent: "BUSINESS",
action: "2. RESPOND_TO_SFMTA",
bike_parking: "RACK",
coordinates: {
needs_recoding: false,
longitude: "-122.464349",
latitude: "37.742874"
}
},
{
racks_installed: "0",
placement: "SIDEWALK",
racks: "SFMTA CONTACTED",
spaces: "0",
location_name: "G-O glow",
status_description: "N/A",
status: "IN_PROGRESS",
yr_installed: "n/a",
status_detail: "UNDER_REVIEW",
installed_by_2: "N/A",
yr_inst: "550 IRVING ST",
acting_agent: "BUSINESS",
action: "2. RESPOND_TO_SFMTA",
bike_parking: "RACK",
coordinates: {
needs_recoding: false,
longitude: "-122.463898",
latitude: "37.764304"
}
},
{
racks_installed: "0",
placement: "SIDEWALK",
racks: "SURVEY SCHEDULED",
spaces: "0",
location_name: "Loving Hut ",
status_description: "N/A",
status: "IN_PROGRESS",
yr_installed: "n/a",
status_detail: "UNDER_REVIEW",
installed_by_2: "N/A",
yr_inst: "524 IRVING ST",
acting_agent: "SFMTA",
action: "3. FIELD_SURVEY",
bike_parking: "RACK",
coordinates: {
needs_recoding: false,
longitude: "-122.46361225",
latitude: "37.76442"
}
},
{
racks_installed: "0",
placement: "SIDEWALK",
racks: "SFMTA_POLICY",
spaces: "0",
location_name: "Genki Ramen",
status_description: "REQUEST FROM VISITOR",
status: "IN_PROGRESS",
yr_installed: "n/a",
status_detail: "UNDER_REVIEW",
installed_by_2: "N/A",
yr_inst: "3944 GEARY BLVD",
acting_agent: "SFMTA",
action: "1. AGENT_TO_CONTACT",
bike_parking: "RACK",
coordinates: {
needs_recoding: false,
longitude: "-122.461866",
latitude: "37.781438"
}
},
{
racks_installed: "0",
placement: "PARKING_LANE",
racks: "SURVEY SCHEDULED",
spaces: "0",
location_name: "Cumaica Coffee",
status_description: "N/A",
status: "IN_PROGRESS",
yr_installed: "n/a",
status_detail: "UNDER_REVIEW",
installed_by_2: "N/A",
yr_inst: "200 CLEMENT ST",
acting_agent: "SFMTA",
action: "3. FIELD_SURVEY",
bike_parking: "RACK",
coordinates: {
needs_recoding: false,
longitude: "-122.4614",
latitude: "37.783334"
}
},
{
racks_installed: "0",
placement: "SIDEWALK",
racks: "SFMTA CONTACTED",
spaces: "0",
location_name: "Elevate Group Fitness",
status_description: "N/A",
status: "IN_PROGRESS",
yr_installed: "n/a",
status_detail: "UNDER_REVIEW",
installed_by_2: "N/A",
yr_inst: "1720 OCEAN AVE",
acting_agent: "BUSINESS",
action: "2. RESPOND_TO_SFMTA",
bike_parking: "RACK",
coordinates: {
needs_recoding: false,
longitude: "-122.460192",
latitude: "37.724988"
}
},
{
racks_installed: "0",
placement: "SIDEWALK",
racks: "SFMTA_POLICY",
spaces: "0",
location_name: "Laundromat",
status_description: "SUPPLY MEETS DEMAND",
status: "IN_PROGRESS",
yr_installed: "n/a",
status_detail: "UNDER_REVIEW",
installed_by_2: "N/A",
yr_inst: "201 BROAD ST",
acting_agent: "SFMTA",
action: "1. AGENT_TO_CONTACT",
bike_parking: "RACK",
coordinates: {
needs_recoding: false,
longitude: "-122.459273",
latitude: "37.712993"
}
},
{
racks_installed: "0",
placement: "SIDEWALK",
racks: "SFMTA CONTACTED",
spaces: "0",
location_name: "Jojo's Cafe",
status_description: "N/A",
status: "IN_PROGRESS",
yr_installed: "n/a",
status_detail: "UNDER_REVIEW",
installed_by_2: "N/A",
yr_inst: "1537 OCEAN AVE",
acting_agent: "BUSINESS",
action: "2. RESPOND_TO_SFMTA",
bike_parking: "RACK",
coordinates: {
needs_recoding: false,
longitude: "-122.458876",
latitude: "37.724179"
}
},
{
racks_installed: "0",
placement: "SIDEWALK",
racks: "SFMTA CONTACTED",
spaces: "0",
location_name: "Cosmopolitan Baptist Church",
status_description: "N/A",
status: "IN_PROGRESS",
yr_installed: "n/a",
status_detail: "UNDER_REVIEW",
installed_by_2: "N/A",
yr_inst: "199 FARALLONES ST",
acting_agent: "BUSINESS",
action: "2. RESPOND_TO_SFMTA",
bike_parking: "RACK",
coordinates: {
needs_recoding: false,
longitude: "-122.458757",
latitude: "37.713941"
}
},
{
racks_installed: "0",
placement: "SIDEWALK",
racks: "SFMTA CONTACTED",
spaces: "0",
location_name: "Ingleside Presbyterian Church",
status_description: "N/A",
status: "IN_PROGRESS",
yr_installed: "n/a",
status_detail: "UNDER_REVIEW",
installed_by_2: "N/A",
yr_inst: "1325 OCEAN AVE",
acting_agent: "BUSINESS",
action: "2. RESPOND_TO_SFMTA",
bike_parking: "RACK",
coordinates: {
needs_recoding: false,
longitude: "-122.456658",
latitude: "37.723696"
}
},
{
racks_installed: "0",
placement: "SIDEWALK",
racks: "SFMTA CONTACTED",
spaces: "0",
location_name: "Courtney Glass",
status_description: "N/A",
status: "IN_PROGRESS",
yr_installed: "n/a",
status_detail: "UNDER_REVIEW",
installed_by_2: "N/A",
yr_inst: "201 PLYMOUTH AVE",
acting_agent: "BUSINESS",
action: "2. RESPOND_TO_SFMTA",
bike_parking: "RACK",
coordinates: {
needs_recoding: false,
longitude: "-122.45628",
latitude: "37.712435"
}
},
{
racks_installed: "0",
placement: "SIDEWALK",
racks: "SFMTA CONTACTED",
spaces: "0",
location_name: "Fellowship Urban Outreach",
status_description: "N/A",
status: "IN_PROGRESS",
yr_installed: "n/a",
status_detail: "UNDER_REVIEW",
installed_by_2: "N/A",
yr_inst: "200 PLYMOUTH AVE",
acting_agent: "BUSINESS",
action: "2. RESPOND_TO_SFMTA",
bike_parking: "RACK",
coordinates: {
needs_recoding: false,
longitude: "-122.45577",
latitude: "37.71247"
}
},
{
racks_installed: "0",
placement: "SIDEWALK",
racks: "SFMTA CONTACTED",
spaces: "0",
location_name: "Westside Church of Christ",
status_description: "N/A",
status: "IN_PROGRESS",
yr_installed: "n/a",
status_detail: "UNDER_REVIEW",
installed_by_2: "N/A",
yr_inst: "142 PLYMOUTH AVE",
acting_agent: "BUSINESS",
action: "2. RESPOND_TO_SFMTA",
bike_parking: "RACK",
coordinates: {
needs_recoding: false,
longitude: "-122.455767",
latitude: "37.71207"
}
},
{
racks_installed: "0",
placement: "SIDEWALK",
racks: "SFMTA CONTACTED",
spaces: "0",
location_name: "SFPD Park Station",
status_description: "N/A",
status: "IN_PROGRESS",
yr_installed: "n/a",
status_detail: "UNDER_REVIEW",
installed_by_2: "N/A",
yr_inst: "1899 WALLER ST",
acting_agent: "BUSINESS",
action: "2. RESPOND_TO_SFMTA",
bike_parking: "RACK",
coordinates: {
needs_recoding: false,
longitude: "-122.455083",
latitude: "37.767974"
}
},
{
racks_installed: "0",
placement: "SIDEWALK",
racks: "SFMTA_POLICY",
spaces: "0",
location_name: "Holloway Market",
status_description: "SUPPLY MEETS DEMAND",
status: "IN_PROGRESS",
yr_installed: "n/a",
status_detail: "UNDER_REVIEW",
installed_by_2: "N/A",
yr_inst: "150 HOLLOWAY AVE",
acting_agent: "SFMTA",
action: "1. AGENT_TO_CONTACT",
bike_parking: "RACK",
coordinates: {
needs_recoding: false,
longitude: "-122.45496",
latitude: "37.722069"
}
},
{
racks_installed: "0",
placement: "SIDEWALK",
racks: "SFMTA CONTACTED",
spaces: "0",
location_name: "multiple",
status_description: "N/A",
status: "IN_PROGRESS",
yr_installed: "n/a",
status_detail: "UNDER_REVIEW",
installed_by_2: "N/A",
yr_inst: "3580 CALIFORNIA ST",
acting_agent: "BUSINESS",
action: "2. RESPOND_TO_SFMTA",
bike_parking: "RACK",
coordinates: {
needs_recoding: false,
longitude: "-122.453054",
latitude: "37.786795"
}
},
{
racks_installed: "0",
placement: "SIDEWALK",
racks: "SFMTA CONTACTED",
spaces: "0",
location_name: "Merced Food Service",
status_description: "N/A",
status: "IN_PROGRESS",
yr_installed: "n/a",
status_detail: "UNDER_REVIEW",
installed_by_2: "N/A",
yr_inst: "5925 MISSION ST",
acting_agent: "BUSINESS",
action: "2. RESPOND_TO_SFMTA",
bike_parking: "RACK",
coordinates: {
needs_recoding: false,
longitude: "-122.45305",
latitude: "37.708418"
}
},
{
racks_installed: "0",
placement: "SIDEWALK",
racks: "SFMTA CONTACTED",
spaces: "0",
location_name: "Ernest Ingold Boys and Girls Club ",
status_description: "REQUEST FROM VISITOR",
status: "IN_PROGRESS",
yr_installed: "n/a",
status_detail: "UNDER_REVIEW",
installed_by_2: "N/A",
yr_inst: "1950 PAGE ST",
acting_agent: "SFMTA",
action: "2. RESPOND_TO_SFMTA",
bike_parking: "RACK",
coordinates: {
needs_recoding: false,
longitude: "-122.45300099",
latitude: "37.77047883"
}
},
{
racks_installed: "0",
placement: "SIDEWALK",
racks: "SURVEY SCHEDULED",
spaces: "0",
location_name: "Fifty/Fifty Coffee and Tea",
status_description: "N/A",
status: "IN_PROGRESS",
yr_installed: "n/a",
status_detail: "UNDER_REVIEW",
installed_by_2: "N/A",
yr_inst: "3157 GEARY BLVD",
acting_agent: "SFMTA",
action: "3. FIELD_SURVEY",
bike_parking: "RACK",
coordinates: {
needs_recoding: false,
longitude: "-122.452952",
latitude: "37.78144"
}
},
{
racks_installed: "0",
placement: "SIDEWALK",
racks: "SFMTA CONTACTED",
spaces: "0",
location_name: "Laurel Hill Nursery School",
status_description: "N/A",
status: "IN_PROGRESS",
yr_installed: "n/a",
status_detail: "UNDER_REVIEW",
installed_by_2: "N/A",
yr_inst: "401 EUCLID AVE",
acting_agent: "BUSINESS",
action: "2. RESPOND_TO_SFMTA",
bike_parking: "RACK",
coordinates: {
needs_recoding: false,
longitude: "-122.45272946",
latitude: "37.78379952"
}
},
{
racks_installed: "0",
placement: "SIDEWALK",
racks: "SURVEY SCHEDULED",
spaces: "0",
location_name: "Laurel Hill Nursery School",
status_description: "N/A",
status: "IN_PROGRESS",
yr_installed: "n/a",
status_detail: "UNDER_REVIEW",
installed_by_2: "N/A",
yr_inst: "401 EUCLID AVE",
acting_agent: "SFMTA",
action: "3. FIELD_SURVEY",
bike_parking: "RACK",
coordinates: {
needs_recoding: false,
longitude: "-122.452729",
latitude: "37.7838"
}
},
{
racks_installed: "0",
placement: "SIDEWALK",
racks: "SFMTA_POLICY",
spaces: "0",
location_name: "Murious Trophy Room ",
status_description: "REQUEST FROM VISITOR",
status: "IN_PROGRESS",
yr_installed: "n/a",
status_detail: "UNDER_REVIEW",
installed_by_2: "N/A",
yr_inst: "1811 HAIGHT ST",
acting_agent: "SFMTA",
action: "1. AGENT_TO_CONTACT",
bike_parking: "RACK",
coordinates: {
needs_recoding: false,
longitude: "-122.452033",
latitude: "37.769123"
}
},
{
racks_installed: "0",
placement: "SIDEWALK",
racks: "SFMTA_POLICY",
spaces: "0",
location_name: "Alembic",
status_description: "REQUEST FROM VISITOR",
status: "IN_PROGRESS",
yr_installed: "n/a",
status_detail: "UNDER_REVIEW",
installed_by_2: "N/A",
yr_inst: "1725 HAIGHT ST",
acting_agent: "SFMTA",
action: "1. AGENT_TO_CONTACT",
bike_parking: "RACK",
coordinates: {
needs_recoding: false,
longitude: "-122.451206",
latitude: "37.76921"
}
},
{
racks_installed: "1",
placement: "SIDEWALK",
racks: "SURVEYED",
spaces: "2",
location_name: "Pharmaca Integrative Pharmacy",
status_description: "SURVEYED",
status: "IN_PROGRESS",
yr_installed: "2014",
status_detail: "UNDER_REVIEW",
installed_by_2: "N/A",
yr_inst: "925 COLE ST",
acting_agent: "SFMTA",
action: "4. REVIEW_AND_APPROVALS",
bike_parking: "RACK",
coordinates: {
needs_recoding: false,
longitude: "-122.450152",
latitude: "37.765296"
}
},
{
racks_installed: "0",
placement: "SIDEWALK",
racks: "SFMTA CONTACTED",
spaces: "0",
location_name: "Pixies",
status_description: "N/A",
status: "IN_PROGRESS",
yr_installed: "n/a",
status_detail: "UNDER_REVIEW",
installed_by_2: "N/A",
yr_inst: "5672 MISSION ST",
acting_agent: "BUSINESS",
action: "2. RESPOND_TO_SFMTA",
bike_parking: "RACK",
coordinates: {
needs_recoding: false,
longitude: "-122.448564",
latitude: "37.710524"
}
},
{
racks_installed: "0",
placement: "SIDEWALK",
racks: "SFMTA_POLICY",
spaces: "0",
location_name: "Palace of Fine Arts",
status_description: "OUTSIDE SFMTA'S JURISDICTION",
status: "IN_PROGRESS",
yr_installed: "n/a",
status_detail: "UNDER_REVIEW",
installed_by_2: "N/A",
yr_inst: "3301 LYON ST",
acting_agent: "REC & PARK",
action: "1. AGENT_TO_CONTACT",
bike_parking: "RACK",
coordinates: {
needs_recoding: false,
longitude: "-122.448346",
latitude: "37.802902"
}
},
{
racks_installed: "0",
placement: "SIDEWALK",
racks: "SFMTA CONTACTED",
spaces: "0",
location_name: "Booker T. Washington Community Service Center",
status_description: "N/A",
status: "IN_PROGRESS",
yr_installed: "n/a",
status_detail: "UNDER_REVIEW",
installed_by_2: "N/A",
yr_inst: "800 PRESIDIO AVE",
acting_agent: "BUSINESS",
action: "2. RESPOND_TO_SFMTA",
bike_parking: "RACK",
coordinates: {
needs_recoding: false,
longitude: "-122.445779",
latitude: "37.784109"
}
},
{
racks_installed: "0",
placement: "SIDEWALK",
racks: "SFMTA CONTACTED",
spaces: "0",
location_name: "Cannabis Company",
status_description: "N/A",
status: "IN_PROGRESS",
yr_installed: "n/a",
status_detail: "UNDER_REVIEW",
installed_by_2: "N/A",
yr_inst: "1334 HAIGHT ST",
acting_agent: "BUSINESS",
action: "2. RESPOND_TO_SFMTA",
bike_parking: "RACK",
coordinates: {
needs_recoding: false,
longitude: "-122.444269",
latitude: "37.770634"
}
},
{
racks_installed: "0",
placement: "PARKING_LANE",
racks: "SFMTA CONTACTED",
spaces: "0",
location_name: "Central Coffee",
status_description: "N/A",
status: "IN_PROGRESS",
yr_installed: "n/a",
status_detail: "UNDER_REVIEW",
installed_by_2: "N/A",
yr_inst: "1696 HAYES ST",
acting_agent: "BUSINESS",
action: "2. RESPOND_TO_SFMTA",
bike_parking: "RACK",
coordinates: {
needs_recoding: false,
longitude: "-122.444249",
latitude: "37.774409"
}
},
{
racks_installed: "0",
placement: "SIDEWALK",
racks: "SFMTA_POLICY",
spaces: "0",
location_name: "Taqueria Reinas",
status_description: "REQUEST FROM VISITOR",
status: "IN_PROGRESS",
yr_installed: "n/a",
status_detail: "UNDER_REVIEW",
installed_by_2: "N/A",
yr_inst: "5300 MISSION ST",
acting_agent: "SFMTA",
action: "1. AGENT_TO_CONTACT",
bike_parking: "RACK",
coordinates: {
needs_recoding: false,
longitude: "-122.442959",
latitude: "37.71463"
}
},
{
racks_installed: "0",
placement: "SIDEWALK",
racks: "SURVEY SCHEDULED",
spaces: "0",
location_name: "Move-SF",
status_description: "N/A",
status: "IN_PROGRESS",
yr_installed: "n/a",
status_detail: "UNDER_REVIEW",
installed_by_2: "N/A",
yr_inst: "2863 CALIFORNIA ST",
acting_agent: "SFMTA",
action: "3. FIELD_SURVEY",
bike_parking: "RACK",
coordinates: {
needs_recoding: false,
longitude: "-122.441507",
latitude: "37.787622"
}
},
{
racks_installed: "0",
placement: "SIDEWALK",
racks: "SURVEY SCHEDULED",
spaces: "0",
location_name: "Cheese Steak Shop",
status_description: "N/A",
status: "IN_PROGRESS",
yr_installed: "n/a",
status_detail: "UNDER_REVIEW",
installed_by_2: "N/A",
yr_inst: "1716 DIVISADERO ST",
acting_agent: "SFMTA",
action: "3. FIELD_SURVEY",
bike_parking: "RACK",
coordinates: {
needs_recoding: false,
longitude: "-122.439639",
latitude: "37.785581"
}
},
{
racks_installed: "0",
placement: "SIDEWALK",
racks: "SURVEY SCHEDULED",
spaces: "0",
location_name: "Embrace Health",
status_description: "N/A",
status: "IN_PROGRESS",
yr_installed: "n/a",
status_detail: "UNDER_REVIEW",
installed_by_2: "N/A",
yr_inst: "2400 GREENWICH ST",
acting_agent: "SFMTA",
action: "3. FIELD_SURVEY",
bike_parking: "RACK",
coordinates: {
needs_recoding: false,
longitude: "-122.43933783",
latitude: "37.79863796"
}
},
{
racks_installed: "0",
placement: "SIDEWALK",
racks: "SFMTA CONTACTED",
spaces: "0",
location_name: "medical complex",
status_description: "N/A",
status: "IN_PROGRESS",
yr_installed: "n/a",
status_detail: "UNDER_REVIEW",
installed_by_2: "N/A",
yr_inst: "2186 GEARY BLVD",
acting_agent: "BUSINESS",
action: "2. RESPOND_TO_SFMTA",
bike_parking: "RACK",
coordinates: {
needs_recoding: false,
longitude: "-122.439293",
latitude: "37.783699"
}
},
{
racks_installed: "0",
placement: "SIDEWALK",
racks: "SFMTA CONTACTED",
spaces: "0",
location_name: "Dream Cloud Vapors",
status_description: "SFMTA CONTACTED",
status: "IN_PROGRESS",
yr_installed: "n/a",
status_detail: "UNDER_REVIEW",
installed_by_2: "N/A",
yr_inst: "4971 MISSION ST",
acting_agent: "BUSINESS",
action: "2. RESPOND_TO_SFMTA",
bike_parking: "RACK",
coordinates: {
needs_recoding: false,
longitude: "-122.438911",
latitude: "37.718804"
}
},
{
racks_installed: "0",
placement: "SIDEWALK",
racks: "SFMTA CONTACTED",
spaces: "0",
location_name: "Eureka Market",
status_description: "N/A",
status: "IN_PROGRESS",
yr_installed: "n/a",
status_detail: "UNDER_REVIEW",
installed_by_2: "N/A",
yr_inst: "4151 17TH ST",
acting_agent: "BUSINESS",
action: "2. RESPOND_TO_SFMTA",
bike_parking: "RACK",
coordinates: {
needs_recoding: false,
longitude: "-122.43855173",
latitude: "37.76208982"
}
},
{
racks_installed: "0",
placement: "SIDEWALK",
racks: "SFMTA CONTACTED",
spaces: "0",
location_name: "Metropolitan Community Church",
status_description: "N/A",
status: "IN_PROGRESS",
yr_installed: "n/a",
status_detail: "UNDER_REVIEW",
installed_by_2: "N/A",
yr_inst: "150 EUREKA ST",
acting_agent: "BUSINESS",
action: "2. RESPOND_TO_SFMTA",
bike_parking: "RACK",
coordinates: {
needs_recoding: false,
longitude: "-122.438506",
latitude: "37.7599"
}
},
{
racks_installed: "0",
placement: "SIDEWALK",
racks: "SFMTA_POLICY",
spaces: "0",
location_name: "Roland Feller - Violin Makers ",
status_description: "REQUEST FROM VISITOR",
status: "IN_PROGRESS",
yr_installed: "n/a",
status_detail: "UNDER_REVIEW",
installed_by_2: "N/A",
yr_inst: "551 DIVISADERO ST",
acting_agent: "SFMTA",
action: "1. AGENT_TO_CONTACT",
bike_parking: "RACK",
coordinates: {
needs_recoding: false,
longitude: "-122.438025",
latitude: "37.774693"
}
},
{
racks_installed: "0",
placement: "SIDEWALK",
racks: "SFMTA_POLICY",
spaces: "0",
location_name: "Holy of Holiness",
status_description: "REQUEST FROM VISITOR",
status: "IN_PROGRESS",
yr_installed: "n/a",
status_detail: "UNDER_REVIEW",
installed_by_2: "N/A",
yr_inst: "509 DIVISADERO ST",
acting_agent: "SFMTA",
action: "1. AGENT_TO_CONTACT",
bike_parking: "RACK",
coordinates: {
needs_recoding: false,
longitude: "-122.438013",
latitude: "37.774417"
}
},
{
racks_installed: "0",
placement: "SIDEWALK",
racks: "SFMTA_POLICY",
spaces: "0",
location_name: "Wine Kitchen ",
status_description: "REQUEST FROM VISITOR",
status: "IN_PROGRESS",
yr_installed: "n/a",
status_detail: "UNDER_REVIEW",
installed_by_2: "N/A",
yr_inst: "507 DIVISADERO ST",
acting_agent: "SFMTA",
action: "1. AGENT_TO_CONTACT",
bike_parking: "RACK",
coordinates: {
needs_recoding: false,
longitude: "-122.437999",
latitude: "37.774349"
}
},
{
racks_installed: "0",
placement: "SIDEWALK",
racks: "SURVEY SCHEDULED",
spaces: "0",
location_name: "Nopa",
status_description: "N/A",
status: "IN_PROGRESS",
yr_installed: "n/a",
status_detail: "UNDER_REVIEW",
installed_by_2: "N/A",
yr_inst: "560 DIVISADERO ST",
acting_agent: "SFMTA",
action: "3. FIELD_SURVEY",
bike_parking: "RACK",
coordinates: {
needs_recoding: false,
longitude: "-122.437469",
latitude: "37.774834"
}
},
{
racks_installed: "0",
placement: "SIDEWALK",
racks: "SFMTA_POLICY",
spaces: "0",
location_name: "Tae Hee's Grooming Pet Supply ",
status_description: "REQUEST FROM VISITOR",
status: "IN_PROGRESS",
yr_installed: "n/a",
status_detail: "UNDER_REVIEW",
installed_by_2: "N/A",
yr_inst: "542 DIVISADERO ST",
acting_agent: "SFMTA",
action: "1. AGENT_TO_CONTACT",
bike_parking: "RACK",
coordinates: {
needs_recoding: false,
longitude: "-122.4374",
latitude: "37.774704"
}
},
{
racks_installed: "0",
placement: "SIDEWALK",
racks: "SFMTA_POLICY",
spaces: "0",
location_name: "The Postal Chase ",
status_description: "REQUEST FROM VISITOR",
status: "IN_PROGRESS",
yr_installed: "n/a",
status_detail: "UNDER_REVIEW",
installed_by_2: "N/A",
yr_inst: "530 DIVISADERO ST",
acting_agent: "SFMTA",
action: "1. AGENT_TO_CONTACT",
bike_parking: "RACK",
coordinates: {
needs_recoding: false,
longitude: "-122.437371",
latitude: "37.77457"
}
},
{
racks_installed: "0",
placement: "SIDEWALK",
racks: "SFMTA_POLICY",
spaces: "0",
location_name: "Citi Beauty Skin Care ",
status_description: "REQUEST FROM VISITOR",
status: "IN_PROGRESS",
yr_installed: "n/a",
status_detail: "UNDER_REVIEW",
installed_by_2: "N/A",
yr_inst: "518 DIVISADERO ST",
acting_agent: "SFMTA",
action: "1. AGENT_TO_CONTACT",
bike_parking: "RACK",
coordinates: {
needs_recoding: false,
longitude: "-122.437343",
latitude: "37.774432"
}
},
{
racks_installed: "0",
placement: "SIDEWALK",
racks: "SFMTA_POLICY",
spaces: "0",
location_name: "SF Hardware ",
status_description: "REQUEST FROM VISITOR",
status: "IN_PROGRESS",
yr_installed: "n/a",
status_detail: "UNDER_REVIEW",
installed_by_2: "N/A",
yr_inst: "512 DIVISADERO ST",
acting_agent: "SFMTA",
action: "1. AGENT_TO_CONTACT",
bike_parking: "RACK",
coordinates: {
needs_recoding: false,
longitude: "-122.43733",
latitude: "37.774364"
}
},
{
racks_installed: "0",
placement: "SIDEWALK",
racks: "SFMTA_POLICY",
spaces: "0",
location_name: "Budget Cleaners ",
status_description: "REQUEST FROM VISITOR",
status: "IN_PROGRESS",
yr_installed: "n/a",
status_detail: "UNDER_REVIEW",
installed_by_2: "N/A",
yr_inst: "536 DIVISADERO ST",
acting_agent: "SFMTA",
action: "1. AGENT_TO_CONTACT",
bike_parking: "RACK",
coordinates: {
needs_recoding: false,
longitude: "-122.437271",
latitude: "37.774644"
}
},
{
racks_installed: "0",
placement: "SIDEWALK",
racks: "SFMTA_POLICY",
spaces: "0",
location_name: "Marina Subs",
status_description: "REQUEST FROM VISITOR",
status: "IN_PROGRESS",
yr_installed: "n/a",
status_detail: "UNDER_REVIEW",
installed_by_2: "N/A",
yr_inst: "2299 UNION ST",
acting_agent: "SFMTA",
action: "1. AGENT_TO_CONTACT",
bike_parking: "RACK",
coordinates: {
needs_recoding: false,
longitude: "-122.436833",
latitude: "37.796788"
}
},
{
racks_installed: "0",
placement: "SIDEWALK",
racks: "SFMTA_POLICY",
spaces: "0",
location_name: "meggie.",
status_description: "REQUEST FROM VISITOR",
status: "IN_PROGRESS",
yr_installed: "n/a",
status_detail: "UNDER_REVIEW",
installed_by_2: "N/A",
yr_inst: "2277 UNION ST",
acting_agent: "BUSINESS",
action: "2. RESPOND_TO_SFMTA",
bike_parking: "RACK",
coordinates: {
needs_recoding: false,
longitude: "-122.436833",
latitude: "37.796788"
}
},
{
racks_installed: "0",
placement: "SIDEWALK",
racks: "SFMTA_POLICY",
spaces: "0",
location_name: "Danielle",
status_description: "REQUEST FROM VISITOR",
status: "IN_PROGRESS",
yr_installed: "n/a",
status_detail: "UNDER_REVIEW",
installed_by_2: "N/A",
yr_inst: "2278 UNION ST",
acting_agent: "SFMTA",
action: "1. AGENT_TO_CONTACT",
bike_parking: "RACK",
coordinates: {
needs_recoding: false,
longitude: "-122.436803",
latitude: "37.797139"
}
},
{
racks_installed: "1",
placement: "SIDEWALK",
racks: "SURVEY SCHEDULED",
spaces: "2",
location_name: "USPS",
status_description: "N/A",
status: "IN_PROGRESS",
yr_installed: "2004",
status_detail: "UNDER_REVIEW",
installed_by_2: "N/A",
yr_inst: "117 DIAMOND ST",
acting_agent: "SFMTA",
action: "3. FIELD_SURVEY",
bike_parking: "RACK",
coordinates: {
needs_recoding: false,
longitude: "-122.436799",
latitude: "37.760124"
}
},
{
racks_installed: "0",
placement: "SIDEWALK",
racks: "SFMTA CONTACTED",
spaces: "0",
location_name: "Mollie Stone's",
status_description: "N/A",
status: "IN_PROGRESS",
yr_installed: "n/a",
status_detail: "UNDER_REVIEW",
installed_by_2: "N/A",
yr_inst: "4201 18TH ST",
acting_agent: "BUSINESS",
action: "2. RESPOND_TO_SFMTA",
bike_parking: "RACK",
coordinates: {
needs_recoding: false,
longitude: "-122.436414",
latitude: "37.760613"
}
},
{
racks_installed: "0",
placement: "SIDEWALK",
racks: "SFMTA_POLICY",
spaces: "0",
location_name: "Union Street Dental Center",
status_description: "REQUEST FROM VISITOR",
status: "IN_PROGRESS",
yr_installed: "n/a",
status_detail: "UNDER_REVIEW",
installed_by_2: "N/A",
yr_inst: "2250 UNION ST",
acting_agent: "SFMTA",
action: "1. AGENT_TO_CONTACT",
bike_parking: "RACK",
coordinates: {
needs_recoding: false,
longitude: "-122.43639",
latitude: "37.797261"
}
},
{
racks_installed: "0",
placement: "SIDEWALK",
racks: "SFMTA_POLICY",
spaces: "0",
location_name: "Le Bouquet",
status_description: "REQUEST FROM VISITOR",
status: "IN_PROGRESS",
yr_installed: "n/a",
status_detail: "UNDER_REVIEW",
installed_by_2: "N/A",
yr_inst: "2205 UNION ST",
acting_agent: "SFMTA",
action: "1. AGENT_TO_CONTACT",
bike_parking: "RACK",
coordinates: {
needs_recoding: false,
longitude: "-122.435688",
latitude: "37.796917"
}
},
{
racks_installed: "0",
placement: "SIDEWALK",
racks: "SFMTA_POLICY",
spaces: "0",
location_name: "Images for Hair",
status_description: "REQUEST FROM VISITOR",
status: "IN_PROGRESS",
yr_installed: "n/a",
status_detail: "UNDER_REVIEW",
installed_by_2: "N/A",
yr_inst: "2203 UNION ST",
acting_agent: "SFMTA",
action: "1. AGENT_TO_CONTACT",
bike_parking: "RACK",
coordinates: {
needs_recoding: false,
longitude: "-122.435688",
latitude: "37.796917"
}
},
{
racks_installed: "0",
placement: "SIDEWALK",
racks: "SFMTA_POLICY",
spaces: "0",
location_name: "Pacific Puffs",
status_description: "REQUEST FROM VISITOR",
status: "IN_PROGRESS",
yr_installed: "n/a",
status_detail: "UNDER_REVIEW",
installed_by_2: "N/A",
yr_inst: "2201 UNION ST",
acting_agent: "SFMTA",
action: "1. AGENT_TO_CONTACT",
bike_parking: "RACK",
coordinates: {
needs_recoding: false,
longitude: "-122.435688",
latitude: "37.796917"
}
},
{
racks_installed: "0",
placement: "SIDEWALK",
racks: "SFMTA_POLICY",
spaces: "0",
location_name: "Radio Shack ",
status_description: "REQUEST FROM VISITOR ",
status: "IN_PROGRESS",
yr_installed: "n/a",
status_detail: "UNDER_REVIEW",
installed_by_2: "N/A",
yr_inst: "#REF!",
acting_agent: "SFMTA",
action: "1. AGENT_TO_CONTACT",
bike_parking: "RACK",
coordinates: {
needs_recoding: false,
longitude: "-122.43540768",
latitude: "37.72436352"
}
},
{
racks_installed: "0",
placement: "SIDEWALK",
racks: "SURVEY SCHEDULED",
location_name: "Song Tea & Ceramics",
status_description: "N/A",
status: "IN_PROGRESS",
yr_installed: "n/a",
status_detail: "UNDER_REVIEW",
installed_by_2: "N/A",
yr_inst: "2120 SUTTER ST",
acting_agent: "SFMTA",
action: "3. FIELD_SURVEY",
bike_parking: "RACK",
coordinates: {
needs_recoding: false,
longitude: "-122.435406",
latitude: "37.786049"
}
},
{
racks_installed: "0",
placement: "SIDEWALK",
racks: "SFMTA_POLICY",
spaces: "0",
location_name: "Michaelis Wine & Spirits",
status_description: "REQUEST FROM VISITOR",
status: "IN_PROGRESS",
yr_installed: "n/a",
status_detail: "UNDER_REVIEW",
installed_by_2: "N/A",
yr_inst: "2198 UNION ST",
acting_agent: "SFMTA",
action: "1. AGENT_TO_CONTACT",
bike_parking: "RACK",
coordinates: {
needs_recoding: false,
longitude: "-122.435365",
latitude: "37.79728"
}
},
{
racks_installed: "0",
placement: "SIDEWALK",
racks: "SFMTA_POLICY",
spaces: "0",
location_name: "El Chico Produce",
status_description: "REQUEST FROM VISITOR ",
status: "IN_PROGRESS",
yr_installed: "n/a",
status_detail: "UNDER_REVIEW",
installed_by_2: "N/A",
yr_inst: "#REF!",
acting_agent: "SFMTA",
action: "1. AGENT_TO_CONTACT",
bike_parking: "RACK",
coordinates: {
needs_recoding: false,
longitude: "-122.43522901",
latitude: "37.72459848"
}
},
{
racks_installed: "0",
placement: "SIDEWALK",
racks: "SFMTA_POLICY",
spaces: "0",
location_name: "Umami Burger",
status_description: "REQUEST FROM VISITOR",
status: "IN_PROGRESS",
yr_installed: "n/a",
status_detail: "UNDER_REVIEW",
installed_by_2: "N/A",
yr_inst: "2184 UNION ST",
acting_agent: "SFMTA",
action: "1. AGENT_TO_CONTACT",
bike_parking: "RACK",
coordinates: {
needs_recoding: false,
longitude: "-122.43516",
latitude: "37.797348"
}
},
{
racks_installed: "0",
placement: "SIDEWALK",
racks: "SFMTA_POLICY",
spaces: "0",
location_name: "American Apparel",
status_description: "REQUEST FROM VISITOR",
status: "IN_PROGRESS",
yr_installed: "n/a",
status_detail: "UNDER_REVIEW",
installed_by_2: "N/A",
yr_inst: "2174 UNION ST",
acting_agent: "SFMTA",
action: "1. AGENT_TO_CONTACT",
bike_parking: "RACK",
coordinates: {
needs_recoding: false,
longitude: "-122.435061",
latitude: "37.79743"
}
},
{
racks_installed: "0",
placement: "SIDEWALK",
racks: "SFMTA_POLICY",
spaces: "0",
location_name: "La Bella Crepe",
status_description: "REQUEST FROM VISITOR",
status: "IN_PROGRESS",
yr_installed: "n/a",
status_detail: "UNDER_REVIEW",
installed_by_2: "N/A",
yr_inst: "2165 UNION ST",
acting_agent: "SFMTA",
action: "1. AGENT_TO_CONTACT",
bike_parking: "RACK",
coordinates: {
needs_recoding: false,
longitude: "-122.434883",
latitude: "37.796932"
}
},
{
racks_installed: "0",
placement: "SIDEWALK",
racks: "SURVEY SCHEDULED",
spaces: "0",
location_name: "Tule Elk Park CDC (PreK & SA)",
status_description: "N/A",
status: "IN_PROGRESS",
yr_installed: "n/a",
status_detail: "UNDER_REVIEW",
installed_by_2: "N/A",
yr_inst: "2110 GREENWICH ST",
acting_agent: "SFMTA",
action: "3. FIELD_SURVEY",
bike_parking: "RACK",
coordinates: {
needs_recoding: false,
longitude: "-122.434862",
latitude: "37.799343"
}
},
{
racks_installed: "0",
placement: "SIDEWALK",
racks: "SFMTA CONTACTED",
spaces: "0",
location_name: "Castro Theatre",
status_description: "N/A",
status: "IN_PROGRESS",
yr_installed: "n/a",
status_detail: "UNDER_REVIEW",
installed_by_2: "N/A",
yr_inst: "429 CASTRO ST",
acting_agent: "BUSINESS",
action: "2. RESPOND_TO_SFMTA",
bike_parking: "RACK",
coordinates: {
needs_recoding: false,
longitude: "-122.434696",
latitude: "37.762013"
}
},
{
racks_installed: "0",
placement: "SIDEWALK",
racks: "SFMTA_POLICY",
spaces: "0",
location_name: "The Brixton",
status_description: "REQUEST FROM VISITOR",
status: "IN_PROGRESS",
yr_installed: "n/a",
status_detail: "UNDER_REVIEW",
installed_by_2: "N/A",
yr_inst: "2140 UNION ST",
acting_agent: "SFMTA",
action: "1. AGENT_TO_CONTACT",
bike_parking: "RACK",
coordinates: {
needs_recoding: false,
longitude: "-122.434566",
latitude: "37.797494"
}
},
{
racks_installed: "0",
placement: "SIDEWALK",
racks: "SFMTA_POLICY",
spaces: "0",
location_name: "La Cucina",
status_description: "REQUEST FROM VISITOR",
status: "IN_PROGRESS",
yr_installed: "n/a",
status_detail: "UNDER_REVIEW",
installed_by_2: "N/A",
yr_inst: "2136 UNION ST",
acting_agent: "SFMTA",
action: "1. AGENT_TO_CONTACT",
bike_parking: "RACK",
coordinates: {
needs_recoding: false,
longitude: "-122.434566",
latitude: "37.797494"
}
},
{
racks_installed: "0",
placement: "SIDEWALK",
racks: "SFMTA_POLICY",
spaces: "0",
location_name: "Vivo",
status_description: "REQUEST FROM VISITOR",
status: "IN_PROGRESS",
yr_installed: "n/a",
status_detail: "UNDER_REVIEW",
installed_by_2: "N/A",
yr_inst: "2124 UNION ST",
acting_agent: "SFMTA",
action: "1. AGENT_TO_CONTACT",
bike_parking: "RACK",
coordinates: {
needs_recoding: false,
longitude: "-122.434412",
latitude: "37.797513"
}
},
{
racks_installed: "0",
placement: "SIDEWALK",
racks: "SFMTA_POLICY",
spaces: "0",
location_name: "La Bella Crepe",
status_description: "REQUEST FROM VISITOR",
status: "IN_PROGRESS",
yr_installed: "n/a",
status_detail: "UNDER_REVIEW",
installed_by_2: "N/A",
yr_inst: "2133 UNION ST",
acting_agent: "SFMTA",
action: "1. AGENT_TO_CONTACT",
bike_parking: "RACK",
coordinates: {
needs_recoding: false,
longitude: "-122.434342",
latitude: "37.797032"
}
},
{
racks_installed: "0",
placement: "SIDEWALK",
racks: "SFMTA_POLICY",
spaces: "0",
location_name: "Union B",
status_description: "REQUEST FROM VISITOR",
status: "IN_PROGRESS",
yr_installed: "n/a",
status_detail: "UNDER_REVIEW",
installed_by_2: "N/A",
yr_inst: "2127 UNION ST",
acting_agent: "SFMTA",
action: "1. AGENT_TO_CONTACT",
bike_parking: "RACK",
coordinates: {
needs_recoding: false,
longitude: "-122.434235",
latitude: "37.797046"
}
},
{
racks_installed: "0",
placement: "SIDEWALK",
racks: "SFMTA_POLICY",
spaces: "0",
location_name: "Kim K Dry Cleaners & Laundry",
status_description: "REQUEST FROM VISITOR ",
status: "IN_PROGRESS",
yr_installed: "n/a",
status_detail: "UNDER_REVIEW",
installed_by_2: "N/A",
yr_inst: "#REF!",
acting_agent: "SFMTA",
action: "1. AGENT_TO_CONTACT",
bike_parking: "RACK",
coordinates: {
needs_recoding: false,
longitude: "-122.43421034",
latitude: "37.72501863"
}
},
{
racks_installed: "0",
placement: "SIDEWALK",
racks: "SFMTA_POLICY",
spaces: "0",
location_name: "Cones n Cakes Mocha Chaca",
status_description: "REQUEST FROM VISITOR ",
status: "IN_PROGRESS",
yr_installed: "n/a",
status_detail: "UNDER_REVIEW",
installed_by_2: "N/A",
yr_inst: "#REF!",
acting_agent: "SFMTA",
action: "1. AGENT_TO_CONTACT",
bike_parking: "RACK",
coordinates: {
needs_recoding: false,
longitude: "-122.43405061",
latitude: "37.72615826"
}
},
{
racks_installed: "0",
placement: "SIDEWALK",
racks: "SFMTA_POLICY",
spaces: "0",
location_name: "Casa Lucaz #3 ",
status_description: "REQUEST FROM VISITOR",
status: "IN_PROGRESS",
yr_installed: "n/a",
status_detail: "UNDER_REVIEW",
installed_by_2: "N/A",
yr_inst: "4555 MISSION ST",
acting_agent: "SFMTA",
action: "1. AGENT_TO_CONTACT",
bike_parking: "RACK",
coordinates: {
needs_recoding: false,
longitude: "-122.43401",
latitude: "37.725283"
}
},
{
racks_installed: "0",
placement: "SIDEWALK",
racks: "SURVEY SCHEDULED",
spaces: "0",
location_name: "Starbucks",
status_description: "N/A",
status: "IN_PROGRESS",
yr_installed: "n/a",
status_detail: "UNDER_REVIEW",
installed_by_2: "N/A",
yr_inst: "3735 BUCHANAN ST",
acting_agent: "SFMTA",
action: "3. FIELD_SURVEY",
bike_parking: "RACK",
coordinates: {
needs_recoding: false,
longitude: "-122.43389351",
latitude: "37.80439603"
}
},
{
racks_installed: "0",
placement: "SIDEWALK",
racks: "SFMTA_POLICY",
spaces: "0",
location_name: "Fog City Leather",
status_description: "REQUEST FROM VISITOR",
status: "IN_PROGRESS",
yr_installed: "n/a",
status_detail: "UNDER_REVIEW",
installed_by_2: "N/A",
yr_inst: "2060 UNION ST",
acting_agent: "SFMTA",
action: "1. AGENT_TO_CONTACT",
bike_parking: "RACK",
coordinates: {
needs_recoding: false,
longitude: "-122.433257",
latitude: "37.79766"
}
},
{
racks_installed: "0",
placement: "SIDEWALK",
racks: "SFMTA CONTACTED",
spaces: "0",
location_name: "SFPD Northern Station",
status_description: "N/A",
status: "IN_PROGRESS",
yr_installed: "n/a",
status_detail: "UNDER_REVIEW",
installed_by_2: "N/A",
yr_inst: "1125 FILLMORE ST",
acting_agent: "BUSINESS",
action: "2. RESPOND_TO_SFMTA",
bike_parking: "RACK",
coordinates: {
needs_recoding: false,
longitude: "-122.432945",
latitude: "37.780053"
}
},
{
racks_installed: "0",
placement: "PARKING_LANE",
racks: "SURVEY SCHEDULED",
spaces: "0",
location_name: "Cafe Flore",
status_description: "N/A",
status: "IN_PROGRESS",
yr_installed: "n/a",
status_detail: "UNDER_REVIEW",
installed_by_2: "N/A",
yr_inst: "2298 MARKET ST",
acting_agent: "SFMTA",
action: "3. FIELD_SURVEY",
bike_parking: "RACK",
coordinates: {
needs_recoding: false,
longitude: "-122.432944",
latitude: "37.764657"
}
},
{
racks_installed: "0",
placement: "SIDEWALK",
racks: "SFMTA CONTACTED",
spaces: "0",
location_name: "Patxi's Pizza",
status_description: "N/A",
status: "IN_PROGRESS",
yr_installed: "n/a",
status_detail: "UNDER_REVIEW",
installed_by_2: "N/A",
yr_inst: "4042 24TH ST",
acting_agent: "BUSINESS",
action: "2. RESPOND_TO_SFMTA",
bike_parking: "RACK",
coordinates: {
needs_recoding: false,
longitude: "-122.432872",
latitude: "37.751612"
}
},
{
racks_installed: "0",
placement: "SIDEWALK",
racks: "SFMTA_POLICY",
spaces: "0",
location_name: "Hutong",
status_description: "REQUEST FROM VISITOR",
status: "IN_PROGRESS",
yr_installed: "n/a",
status_detail: "UNDER_REVIEW",
installed_by_2: "N/A",
yr_inst: "2030 UNION ST",
acting_agent: "SFMTA",
action: "1. AGENT_TO_CONTACT",
bike_parking: "RACK",
coordinates: {
needs_recoding: false,
longitude: "-122.432703",
latitude: "37.797675"
}
},
{
racks_installed: "0",
placement: "SIDEWALK",
racks: "SFMTA_POLICY",
spaces: "0",
location_name: "Hunan Empire",
status_description: "REQUEST FROM VISITOR",
status: "IN_PROGRESS",
yr_installed: "n/a",
status_detail: "UNDER_REVIEW",
installed_by_2: "N/A",
yr_inst: "2001 UNION ST",
acting_agent: "SFMTA",
action: "1. AGENT_TO_CONTACT",
bike_parking: "RACK",
coordinates: {
needs_recoding: false,
longitude: "-122.432486",
latitude: "37.797184"
}
},
{
racks_installed: "0",
placement: "SIDEWALK",
racks: "SFMTA_POLICY",
spaces: "0",
location_name: "Cafe des Amis",
status_description: "REQUEST FROM VISITOR",
status: "IN_PROGRESS",
yr_installed: "n/a",
status_detail: "UNDER_REVIEW",
installed_by_2: "N/A",
yr_inst: "2000 UNION ST",
acting_agent: "SFMTA",
action: "1. AGENT_TO_CONTACT",
bike_parking: "RACK",
coordinates: {
needs_recoding: false,
longitude: "-122.432455",
latitude: "37.797682"
}
},
{
racks_installed: "0",
placement: "SIDEWALK",
racks: "SFMTA_POLICY",
spaces: "0",
location_name: "Destination Baking Company",
status_description: "REQUEST FROM VISITOR",
status: "IN_PROGRESS",
yr_installed: "n/a",
status_detail: "UNDER_REVIEW",
installed_by_2: "N/A",
yr_inst: "598 CHENERY ST",
acting_agent: "SFMTA",
action: "1. AGENT_TO_CONTACT",
bike_parking: "RACK",
coordinates: {
needs_recoding: false,
longitude: "-122.432285",
latitude: "37.73474"
}
},
{
racks_installed: "0",
placement: "SIDEWALK",
racks: "SURVEY SCHEDULED",
spaces: "0",
location_name: "Perfect Fit",
status_description: "N/A",
status: "IN_PROGRESS",
yr_installed: "n/a",
status_detail: "UNDER_REVIEW",
installed_by_2: "N/A",
yr_inst: "1860 LOMBARD ST",
acting_agent: "SFMTA",
action: "3. FIELD_SURVEY",
bike_parking: "RACK",
coordinates: {
needs_recoding: false,
longitude: "-122.432171",
latitude: "37.800562"
}
},
{
racks_installed: "0",
placement: "SIDEWALK",
racks: "SURVEY SCHEDULED",
spaces: "0",
location_name: "California Pacific Medical Center",
status_description: "N/A",
status: "IN_PROGRESS",
yr_installed: "n/a",
status_detail: "UNDER_REVIEW",
installed_by_2: "N/A",
yr_inst: "2100 WEBSTER ST",
acting_agent: "SFMTA",
action: "3. FIELD_SURVEY",
bike_parking: "RACK",
coordinates: {
needs_recoding: false,
longitude: "-122.43214",
latitude: "37.790526"
}
},
{
racks_installed: "0",
placement: "SIDEWALK",
racks: "SFMTA_POLICY",
spaces: "0",
location_name: "Cultive Frozen Yogurt",
status_description: "REQUEST FROM VISITOR",
status: "IN_PROGRESS",
yr_installed: "n/a",
status_detail: "UNDER_REVIEW",
installed_by_2: "N/A",
yr_inst: "1998 UNION ST",
acting_agent: "SFMTA",
action: "1. AGENT_TO_CONTACT",
bike_parking: "RACK",
coordinates: {
needs_recoding: false,
longitude: "-122.43207",
latitude: "37.797698"
}
},
{
racks_installed: "0",
placement: "SIDEWALK",
racks: "SFMTA_POLICY",
spaces: "0",
location_name: "Red Union Hair Salon",
status_description: "REQUEST FROM VISITOR",
status: "IN_PROGRESS",
yr_installed: "n/a",
status_detail: "UNDER_REVIEW",
installed_by_2: "N/A",
yr_inst: "1996 UNION ST",
acting_agent: "SFMTA",
action: "1. AGENT_TO_CONTACT",
bike_parking: "RACK",
coordinates: {
needs_recoding: false,
longitude: "-122.43207",
latitude: "37.797698"
}
},
{
racks_installed: "0",
placement: "SIDEWALK",
racks: "SFMTA_POLICY",
spaces: "0",
location_name: "Juice Stop",
status_description: "REQUEST FROM VISITOR",
status: "IN_PROGRESS",
yr_installed: "n/a",
status_detail: "UNDER_REVIEW",
installed_by_2: "N/A",
yr_inst: "1994 UNION ST",
acting_agent: "SFMTA",
action: "1. AGENT_TO_CONTACT",
bike_parking: "RACK",
coordinates: {
needs_recoding: false,
longitude: "-122.43207",
latitude: "37.797698"
}
},
{
racks_installed: "0",
placement: "SIDEWALK",
racks: "SFMTA_POLICY",
spaces: "0",
location_name: "Bank of America",
status_description: "REQUEST FROM VISITOR",
status: "IN_PROGRESS",
yr_installed: "n/a",
status_detail: "UNDER_REVIEW",
installed_by_2: "N/A",
yr_inst: "1995 UNION ST",
acting_agent: "SFMTA",
action: "1. AGENT_TO_CONTACT",
bike_parking: "RACK",
coordinates: {
needs_recoding: false,
longitude: "-122.431947",
latitude: "37.797305"
}
},
{
racks_installed: "0",
placement: "SIDEWALK",
racks: "SFMTA_POLICY",
spaces: "0",
location_name: "Bar None",
status_description: "REQUEST FROM VISITOR",
status: "IN_PROGRESS",
yr_installed: "n/a",
status_detail: "UNDER_REVIEW",
installed_by_2: "N/A",
yr_inst: "1980 UNION ST",
acting_agent: "SFMTA",
action: "1. AGENT_TO_CONTACT",
bike_parking: "RACK",
coordinates: {
needs_recoding: false,
longitude: "-122.431913",
latitude: "37.797761"
}
},
{
racks_installed: "0",
placement: "SIDEWALK",
racks: "SFMTA CONTACTED",
spaces: "0",
location_name: "West Bay Conference Center",
status_description: "N/A",
status: "IN_PROGRESS",
yr_installed: "n/a",
status_detail: "UNDER_REVIEW",
installed_by_2: "N/A",
yr_inst: "1290 FILLMORE ST",
acting_agent: "BUSINESS",
action: "2. RESPOND_TO_SFMTA",
bike_parking: "RACK",
coordinates: {
needs_recoding: false,
longitude: "-122.43184",
latitude: "37.781276"
}
},
{
racks_installed: "0",
placement: "SIDEWALK",
racks: "SFMTA_POLICY",
spaces: "0",
location_name: "Lucy Activewear",
status_description: "REQUEST FROM VISITOR",
status: "IN_PROGRESS",
yr_installed: "n/a",
status_detail: "UNDER_REVIEW",
installed_by_2: "N/A",
yr_inst: "1974 UNION ST",
acting_agent: "BUSINESS",
action: "2. RESPOND_TO_SFMTA",
bike_parking: "RACK",
coordinates: {
needs_recoding: false,
longitude: "-122.431769",
latitude: "37.797849"
}
},
{
racks_installed: "0",
placement: "SIDEWALK",
racks: "SFMTA_POLICY",
spaces: "0",
location_name: "Artisans of San Francisco",
status_description: "REQUEST FROM VISITOR",
status: "IN_PROGRESS",
yr_installed: "n/a",
status_detail: "UNDER_REVIEW",
installed_by_2: "N/A",
yr_inst: "1964 UNION ST",
acting_agent: "SFMTA",
action: "1. AGENT_TO_CONTACT",
bike_parking: "RACK",
coordinates: {
needs_recoding: false,
longitude: "-122.431678",
latitude: "37.79786"
}
},
{
racks_installed: "0",
placement: "SIDEWALK",
racks: "SFMTA_POLICY",
spaces: "0",
location_name: "The Blue Light",
status_description: "REQUEST FROM VISITOR",
status: "IN_PROGRESS",
yr_installed: "n/a",
status_detail: "UNDER_REVIEW",
installed_by_2: "N/A",
yr_inst: "1979 UNION ST",
acting_agent: "SFMTA",
action: "1. AGENT_TO_CONTACT",
bike_parking: "RACK",
coordinates: {
needs_recoding: false,
longitude: "-122.431639",
latitude: "37.797344"
}
},
{
racks_installed: "0",
placement: "SIDEWALK",
racks: "SFMTA_POLICY",
spaces: "0",
location_name: "High Society",
status_description: "REQUEST FROM VISITOR",
status: "IN_PROGRESS",
yr_installed: "n/a",
status_detail: "UNDER_REVIEW",
installed_by_2: "N/A",
yr_inst: "1977 UNION ST",
acting_agent: "SFMTA",
action: "1. AGENT_TO_CONTACT",
bike_parking: "RACK",
coordinates: {
needs_recoding: false,
longitude: "-122.431639",
latitude: "37.797344"
}
},
{
racks_installed: "0",
placement: "PARKING_LANE",
racks: "SFMTA_POLICY",
spaces: "0",
location_name: "Duboce Park Cafe",
status_description: "SUPPLY MEETS DEMAND",
status: "IN_PROGRESS",
yr_installed: "n/a",
status_detail: "UNDER_REVIEW",
installed_by_2: "N/A",
yr_inst: "2 SANCHEZ ST",
acting_agent: "SFMTA",
action: "1. AGENT_TO_CONTACT",
bike_parking: "RACK",
coordinates: {
needs_recoding: false,
longitude: "-122.431623",
latitude: "37.769161"
}
},
{
racks_installed: "0",
placement: "SIDEWALK",
racks: "SFMTA_POLICY",
spaces: "0",
location_name: "Lashfully",
status_description: "REQUEST FROM VISITOR",
status: "IN_PROGRESS",
yr_installed: "n/a",
status_detail: "UNDER_REVIEW",
installed_by_2: "N/A",
yr_inst: "1954 UNION ST",
acting_agent: "SFMTA",
action: "1. AGENT_TO_CONTACT",
bike_parking: "RACK",
coordinates: {
needs_recoding: false,
longitude: "-122.431502",
latitude: "37.797883"
}
},
{
racks_installed: "0",
placement: "SIDEWALK",
racks: "SFMTA_POLICY",
spaces: "0",
location_name: "State Farm Insurance",
status_description: "REQUEST FROM VISITOR",
status: "IN_PROGRESS",
yr_installed: "n/a",
status_detail: "UNDER_REVIEW",
installed_by_2: "N/A",
yr_inst: "1952 UNION ST",
acting_agent: "SFMTA",
action: "1. AGENT_TO_CONTACT",
bike_parking: "RACK",
coordinates: {
needs_recoding: false,
longitude: "-122.431502",
latitude: "37.797883"
}
},
{
racks_installed: "0",
placement: "SIDEWALK",
racks: "SFMTA_POLICY",
spaces: "0",
location_name: "Spuntino di Ottimista",
status_description: "REQUEST FROM VISITOR",
status: "IN_PROGRESS",
yr_installed: "n/a",
status_detail: "UNDER_REVIEW",
installed_by_2: "N/A",
yr_inst: "1957 UNION ST",
acting_agent: "SFMTA",
action: "1. AGENT_TO_CONTACT",
bike_parking: "RACK",
coordinates: {
needs_recoding: false,
longitude: "-122.431475",
latitude: "37.7974"
}
},
{
racks_installed: "0",
placement: "SIDEWALK",
racks: "SFMTA_POLICY",
spaces: "0",
location_name: "Puffin's",
status_description: "REQUEST FROM VISITOR",
status: "IN_PROGRESS",
yr_installed: "n/a",
status_detail: "UNDER_REVIEW",
installed_by_2: "N/A",
yr_inst: "1945 UNION ST",
acting_agent: "SFMTA",
action: "1. AGENT_TO_CONTACT",
bike_parking: "RACK",
coordinates: {
needs_recoding: false,
longitude: "-122.431271",
latitude: "37.797391"
}
},
{
racks_installed: "0",
placement: "SIDEWALK",
racks: "SFMTA_POLICY",
spaces: "0",
location_name: "Plumberry Nail Spa",
status_description: "REQUEST FROM VISITOR",
status: "IN_PROGRESS",
yr_installed: "n/a",
status_detail: "UNDER_REVIEW",
installed_by_2: "N/A",
yr_inst: "1933 UNION ST",
acting_agent: "SFMTA",
action: "1. AGENT_TO_CONTACT",
bike_parking: "RACK",
coordinates: {
needs_recoding: false,
longitude: "-122.431143",
latitude: "37.797407"
}
},
{
racks_installed: "0",
placement: "SIDEWALK",
racks: "SFMTA_POLICY",
spaces: "0",
location_name: "La Bijouterie",
status_description: "REQUEST FROM VISITOR",
status: "IN_PROGRESS",
yr_installed: "n/a",
status_detail: "UNDER_REVIEW",
installed_by_2: "N/A",
yr_inst: "1931 UNION ST",
acting_agent: "SFMTA",
action: "1. AGENT_TO_CONTACT",
bike_parking: "RACK",
coordinates: {
needs_recoding: false,
longitude: "-122.431057",
latitude: "37.797418"
}
},
{
racks_installed: "0",
placement: "SIDEWALK",
racks: "SFMTA_POLICY",
spaces: "0",
location_name: "American Cupcakes",
status_description: "REQUEST FROM VISITOR",
status: "IN_PROGRESS",
yr_installed: "n/a",
status_detail: "UNDER_REVIEW",
installed_by_2: "N/A",
yr_inst: "1919 UNION ST",
acting_agent: "SFMTA",
action: "1. AGENT_TO_CONTACT",
bike_parking: "RACK",
coordinates: {
needs_recoding: false,
longitude: "-122.430972",
latitude: "37.797429"
}
},
{
racks_installed: "0",
placement: "SIDEWALK",
racks: "SFMTA_POLICY",
spaces: "0",
location_name: "Wells Fargo",
status_description: "REQUEST FROM VISITOR",
status: "IN_PROGRESS",
yr_installed: "n/a",
status_detail: "UNDER_REVIEW",
installed_by_2: "N/A",
yr_inst: "1900 UNION ST",
acting_agent: "SFMTA",
action: "1. AGENT_TO_CONTACT",
bike_parking: "RACK",
coordinates: {
needs_recoding: false,
longitude: "-122.430828",
latitude: "37.797906"
}
},
{
racks_installed: "0",
placement: "SIDEWALK",
racks: "SURVEY SCHEDULED",
spaces: "0",
location_name: "Urban Bread ",
status_description: "N/A",
status: "IN_PROGRESS",
yr_installed: "n/a",
status_detail: "UNDER_REVIEW",
installed_by_2: "N/A",
yr_inst: "3901 18TH ST",
acting_agent: "SFMTA",
action: "3. FIELD_SURVEY",
bike_parking: "RACK",
coordinates: {
needs_recoding: false,
longitude: "-122.430785",
latitude: "37.761018"
}
},
{
racks_installed: "0",
placement: "SIDEWALK",
racks: "SFMTA_POLICY",
spaces: "0",
location_name: "Bus Stop Bar",
status_description: "REQUEST FROM VISITOR",
status: "IN_PROGRESS",
yr_installed: "n/a",
status_detail: "UNDER_REVIEW",
installed_by_2: "N/A",
yr_inst: "1901 UNION ST",
acting_agent: "SFMTA",
action: "1. AGENT_TO_CONTACT",
bike_parking: "RACK",
coordinates: {
needs_recoding: false,
longitude: "-122.430709",
latitude: "37.797535"
}
},
{
racks_installed: "0",
placement: "SIDEWALK",
racks: "SURVEY SCHEDULED",
spaces: "0",
location_name: "The Green Cross",
status_description: "N/A",
status: "IN_PROGRESS",
yr_installed: "n/a",
status_detail: "UNDER_REVIEW",
installed_by_2: "N/A",
yr_inst: "4218 MISSION ST",
acting_agent: "SFMTA",
action: "3. FIELD_SURVEY",
bike_parking: "RACK",
coordinates: {
needs_recoding: false,
longitude: "-122.430645",
latitude: "37.729774"
}
},
{
racks_installed: "0",
placement: "SIDEWALK",
racks: "SFMTA CONTACTED",
spaces: "0",
location_name: "The Center SF",
status_description: "SFMTA CONTACTED",
status: "IN_PROGRESS",
yr_installed: "n/a",
status_detail: "UNDER_REVIEW",
installed_by_2: "N/A",
yr_inst: "548 FILLMORE ST",
acting_agent: "BUSINESS",
action: "2. RESPOND_TO_SFMTA",
bike_parking: "RACK",
coordinates: {
needs_recoding: false,
longitude: "-122.430617",
latitude: "37.774545"
}
},
{
racks_installed: "0",
placement: "SIDEWALK",
racks: "SURVEY SCHEDULED",
spaces: "0",
location_name: "Nihonmachi Little Friends",
status_description: "N/A",
status: "IN_PROGRESS",
yr_installed: "n/a",
status_detail: "UNDER_REVIEW",
installed_by_2: "N/A",
yr_inst: "2031 BUSH ST",
acting_agent: "SFMTA",
action: "3. FIELD_SURVEY",
bike_parking: "RACK",
coordinates: {
needs_recoding: false,
longitude: "-122.43059",
latitude: "37.78709"
}
},
{
racks_installed: "0",
placement: "SIDEWALK",
racks: "SFMTA CONTACTED",
spaces: "0",
location_name: "Nihonmachi Little Friends",
status_description: "REQUEST FROM VISITOR",
status: "IN_PROGRESS",
yr_installed: "n/a",
status_detail: "UNDER_REVIEW",
installed_by_2: "N/A",
yr_inst: "1830 SUTTER ST",
acting_agent: "BUSINESS",
action: "2. RESPOND_TO_SFMTA",
bike_parking: "RACK",
coordinates: {
needs_recoding: false,
longitude: "-122.43056",
latitude: "37.786717"
}
},
{
racks_installed: "0",
placement: "SIDEWALK",
racks: "SFMTA_POLICY",
spaces: "0",
location_name: "Stuart Moore Gallery of Jewelry",
status_description: "REQUEST FROM VISITOR",
status: "IN_PROGRESS",
yr_installed: "n/a",
status_detail: "UNDER_REVIEW",
installed_by_2: "N/A",
yr_inst: "1898 UNION ST",
acting_agent: "SFMTA",
action: "1. AGENT_TO_CONTACT",
bike_parking: "RACK",
coordinates: {
needs_recoding: false,
longitude: "-122.4304",
latitude: "37.797916"
}
},
{
racks_installed: "0",
placement: "SIDEWALK",
racks: "SFMTA_POLICY",
spaces: "0",
location_name: "Starbucks",
status_description: "REQUEST FROM VISITOR",
status: "IN_PROGRESS",
yr_installed: "n/a",
status_detail: "UNDER_REVIEW",
installed_by_2: "N/A",
yr_inst: "1899 UNION ST",
acting_agent: "SFMTA",
action: "1. AGENT_TO_CONTACT",
bike_parking: "RACK",
coordinates: {
needs_recoding: false,
longitude: "-122.430316",
latitude: "37.797543"
}
},
{
racks_installed: "0",
placement: "SIDEWALK",
racks: "SFMTA_POLICY",
spaces: "0",
location_name: "Berenice Hair Saloon",
status_description: "REQUEST FROM VISITOR",
status: "IN_PROGRESS",
yr_installed: "n/a",
status_detail: "UNDER_REVIEW",
installed_by_2: "N/A",
yr_inst: "1889 UNION ST",
acting_agent: "SFMTA",
action: "1. AGENT_TO_CONTACT",
bike_parking: "RACK",
coordinates: {
needs_recoding: false,
longitude: "-122.430316",
latitude: "37.797543"
}
},
{
racks_installed: "0",
placement: "SIDEWALK",
racks: "SFMTA_POLICY",
spaces: "0",
location_name: "Laser Away",
status_description: "REQUEST FROM VISITOR",
status: "IN_PROGRESS",
yr_installed: "n/a",
status_detail: "UNDER_REVIEW",
installed_by_2: "N/A",
yr_inst: "1878 UNION ST",
acting_agent: "SFMTA",
action: "1. AGENT_TO_CONTACT",
bike_parking: "RACK",
coordinates: {
needs_recoding: false,
longitude: "-122.430232",
latitude: "37.79799"
}
},
{
racks_installed: "0",
placement: "SIDEWALK",
racks: "SFMTA_POLICY",
spaces: "0",
location_name: "David Clay Jewelers",
status_description: "REQUEST FROM VISITOR",
status: "IN_PROGRESS",
yr_installed: "n/a",
status_detail: "UNDER_REVIEW",
installed_by_2: "N/A",
yr_inst: "1872 UNION ST",
acting_agent: "SFMTA",
action: "1. AGENT_TO_CONTACT",
bike_parking: "RACK",
coordinates: {
needs_recoding: false,
longitude: "-122.430154",
latitude: "37.798"
}
},
{
racks_installed: "0",
placement: "SIDEWALK",
racks: "SFMTA_POLICY",
spaces: "0",
location_name: "A Valente and Sons",
status_description: "REQUEST FROM VISITOR",
status: "IN_PROGRESS",
yr_installed: "n/a",
status_detail: "UNDER_REVIEW",
installed_by_2: "N/A",
yr_inst: "1877 UNION ST",
acting_agent: "SFMTA",
action: "1. AGENT_TO_CONTACT",
bike_parking: "RACK",
coordinates: {
needs_recoding: false,
longitude: "-122.4301",
latitude: "37.79757"
}
},
{
racks_installed: "0",
placement: "SIDEWALK",
racks: "SFMTA_POLICY",
spaces: "0",
location_name: "LF Stores",
status_description: "REQUEST FROM VISITOR",
status: "IN_PROGRESS",
yr_installed: "n/a",
status_detail: "UNDER_REVIEW",
installed_by_2: "N/A",
yr_inst: "1870 UNION ST",
acting_agent: "SFMTA",
action: "1. AGENT_TO_CONTACT",
bike_parking: "RACK",
coordinates: {
needs_recoding: false,
longitude: "-122.430074",
latitude: "37.798047"
}
},
{
racks_installed: "0",
placement: "SIDEWALK",
racks: "SFMTA_POLICY",
spaces: "0",
location_name: "Lightning Tavern",
status_description: "REQUEST FROM VISITOR",
status: "IN_PROGRESS",
yr_installed: "n/a",
status_detail: "UNDER_REVIEW",
installed_by_2: "N/A",
yr_inst: "1875 UNION ST",
acting_agent: "SFMTA",
action: "1. AGENT_TO_CONTACT",
bike_parking: "RACK",
coordinates: {
needs_recoding: false,
longitude: "-122.43",
latitude: "37.7975"
}
},
{
racks_installed: "0",
placement: "SIDEWALK",
racks: "SFMTA_POLICY",
spaces: "0",
location_name: "Ambiance",
status_description: "REQUEST FROM VISITOR",
status: "IN_PROGRESS",
yr_installed: "n/a",
status_detail: "UNDER_REVIEW",
installed_by_2: "N/A",
yr_inst: "1864 UNION ST",
acting_agent: "SFMTA",
action: "1. AGENT_TO_CONTACT",
bike_parking: "RACK",
coordinates: {
needs_recoding: false,
longitude: "-122.429992",
latitude: "37.798075"
}
},
{
racks_installed: "0",
placement: "SIDEWALK",
racks: "SFMTA_POLICY",
spaces: "0",
location_name: "Jest Jewels",
status_description: "REQUEST FROM VISITOR",
status: "IN_PROGRESS",
yr_installed: "n/a",
status_detail: "UNDER_REVIEW",
installed_by_2: "N/A",
yr_inst: "1869 UNION ST",
acting_agent: "SFMTA",
action: "1. AGENT_TO_CONTACT",
bike_parking: "RACK",
coordinates: {
needs_recoding: false,
longitude: "-122.429915",
latitude: "37.797511"
}
},
{
racks_installed: "0",
placement: "SIDEWALK",
racks: "SFMTA_POLICY",
spaces: "0",
location_name: "Ambiance",
status_description: "REQUEST FROM VISITOR",
status: "IN_PROGRESS",
yr_installed: "n/a",
status_detail: "UNDER_REVIEW",
installed_by_2: "N/A",
yr_inst: "1858 UNION ST",
acting_agent: "SFMTA",
action: "1. AGENT_TO_CONTACT",
bike_parking: "RACK",
coordinates: {
needs_recoding: false,
longitude: "-122.429898",
latitude: "37.798087"
}
},
{
racks_installed: "0",
placement: "SIDEWALK",
racks: "SFMTA_POLICY",
spaces: "0",
location_name: "Eurasian Interiors",
status_description: "REQUEST FROM VISITOR",
status: "IN_PROGRESS",
yr_installed: "n/a",
status_detail: "UNDER_REVIEW",
installed_by_2: "N/A",
yr_inst: "1861 UNION ST",
acting_agent: "SFMTA",
action: "1. AGENT_TO_CONTACT",
bike_parking: "RACK",
coordinates: {
needs_recoding: false,
longitude: "-122.42983",
latitude: "37.797522"
}
},
{
racks_installed: "0",
placement: "SIDEWALK",
racks: "SFMTA_POLICY",
spaces: "0",
location_name: "Luisa's Restaurant",
status_description: "REQUEST FROM VISITOR",
status: "IN_PROGRESS",
yr_installed: "n/a",
status_detail: "UNDER_REVIEW",
installed_by_2: "N/A",
yr_inst: "1851 UNION ST",
acting_agent: "SFMTA",
action: "1. AGENT_TO_CONTACT",
bike_parking: "RACK",
coordinates: {
needs_recoding: false,
longitude: "-122.429744",
latitude: "37.797532"
}
},
{
racks_installed: "0",
placement: "SIDEWALK",
racks: "SFMTA_POLICY",
spaces: "0",
location_name: "A Day in May",
status_description: "REQUEST FROM VISITOR",
status: "IN_PROGRESS",
yr_installed: "n/a",
status_detail: "UNDER_REVIEW",
installed_by_2: "N/A",
yr_inst: "1850 UNION ST",
acting_agent: "SFMTA",
action: "1. AGENT_TO_CONTACT",
bike_parking: "RACK",
coordinates: {
needs_recoding: false,
longitude: "-122.429724",
latitude: "37.798215"
}
},
{
racks_installed: "0",
placement: "SIDEWALK",
racks: "SFMTA_POLICY",
spaces: "0",
location_name: "Itoya Topdrawer",
status_description: "REQUEST FROM VISITOR",
status: "IN_PROGRESS",
yr_installed: "n/a",
status_detail: "UNDER_REVIEW",
installed_by_2: "N/A",
yr_inst: "1840 UNION ST",
acting_agent: "SFMTA",
action: "1. AGENT_TO_CONTACT",
bike_parking: "RACK",
coordinates: {
needs_recoding: false,
longitude: "-122.429704",
latitude: "37.798055"
}
},
{
racks_installed: "0",
placement: "SIDEWALK",
racks: "SFMTA_POLICY",
spaces: "0",
location_name: "Ottimista Enoteca-Cafe",
status_description: "REQUEST FROM VISITOR",
status: "IN_PROGRESS",
yr_installed: "n/a",
status_detail: "UNDER_REVIEW",
installed_by_2: "N/A",
yr_inst: "1838 UNION ST",
acting_agent: "SFMTA",
action: "1. AGENT_TO_CONTACT",
bike_parking: "RACK",
coordinates: {
needs_recoding: false,
longitude: "-122.429704",
latitude: "37.79806"
}
},
{
racks_installed: "0",
placement: "SIDEWALK",
racks: "SFMTA_POLICY",
spaces: "0",
location_name: "Chronicle Books",
status_description: "REQUEST FROM VISITOR",
status: "IN_PROGRESS",
yr_installed: "n/a",
status_detail: "UNDER_REVIEW",
installed_by_2: "N/A",
yr_inst: "1846 UNION ST",
acting_agent: "BUSINESS",
action: "2. RESPOND_TO_SFMTA",
bike_parking: "RACK",
coordinates: {
needs_recoding: false,
longitude: "-122.429704",
latitude: "37.79806"
}
},
{
racks_installed: "0",
placement: "SIDEWALK",
racks: "SFMTA_POLICY",
spaces: "0",
location_name: "Bistro Unique SF",
status_description: "REQUEST FROM VISITOR",
status: "IN_PROGRESS",
yr_installed: "n/a",
status_detail: "UNDER_REVIEW",
installed_by_2: "N/A",
yr_inst: "1849 UNION ST",
acting_agent: "SFMTA",
action: "1. AGENT_TO_CONTACT",
bike_parking: "RACK",
coordinates: {
needs_recoding: false,
longitude: "-122.429666",
latitude: "37.797542"
}
},
{
racks_installed: "0",
placement: "SIDEWALK",
racks: "SURVEY SCHEDULED",
spaces: "0",
location_name: "Sanchez Elementary School",
status_description: "N/A",
status: "IN_PROGRESS",
yr_installed: "n/a",
status_detail: "UNDER_REVIEW",
installed_by_2: "N/A",
yr_inst: "325 SANCHEZ ST",
acting_agent: "SFMTA",
action: "3. FIELD_SURVEY",
bike_parking: "RACK",
coordinates: {
needs_recoding: false,
longitude: "-122.429646",
latitude: "37.763542"
}
},
{
racks_installed: "0",
placement: "SIDEWALK",
racks: "SFMTA_POLICY",
spaces: "0",
location_name: "Marmalade Boutiques",
status_description: "REQUEST FROM VISITOR",
status: "IN_PROGRESS",
yr_installed: "n/a",
status_detail: "UNDER_REVIEW",
installed_by_2: "N/A",
yr_inst: "1843 UNION ST",
acting_agent: "BUSINESS",
action: "2. RESPOND_TO_SFMTA",
bike_parking: "RACK",
coordinates: {
needs_recoding: false,
longitude: "-122.429554",
latitude: "37.797557"
}
},
{
racks_installed: "0",
placement: "SIDEWALK",
racks: "SFMTA_POLICY",
spaces: "0",
location_name: "Caffe Union",
status_description: "REQUEST FROM VISITOR",
status: "IN_PROGRESS",
yr_installed: "n/a",
status_detail: "UNDER_REVIEW",
installed_by_2: "N/A",
yr_inst: "1830 UNION ST",
acting_agent: "SFMTA",
action: "1. AGENT_TO_CONTACT",
bike_parking: "RACK",
coordinates: {
needs_recoding: false,
longitude: "-122.429546",
latitude: "37.79808"
}
},
{
racks_installed: "0",
placement: "SIDEWALK",
racks: "SFMTA_POLICY",
spaces: "0",
location_name: "Chloe Rose",
status_description: "REQUEST FROM VISITOR",
status: "IN_PROGRESS",
yr_installed: "n/a",
status_detail: "UNDER_REVIEW",
installed_by_2: "N/A",
yr_inst: "1824 UNION ST",
acting_agent: "SFMTA",
action: "1. AGENT_TO_CONTACT",
bike_parking: "RACK",
coordinates: {
needs_recoding: false,
longitude: "-122.429444",
latitude: "37.798137"
}
},
{
racks_installed: "0",
placement: "SIDEWALK",
racks: "SFMTA_POLICY",
spaces: "0",
location_name: "Sprout San Francisco",
status_description: "REQUEST FROM VISITOR",
status: "IN_PROGRESS",
yr_installed: "n/a",
status_detail: "UNDER_REVIEW",
installed_by_2: "N/A",
yr_inst: "1828 UNION ST",
acting_agent: "BUSINESS",
action: "2. RESPOND_TO_SFMTA",
bike_parking: "RACK",
coordinates: {
needs_recoding: false,
longitude: "-122.429444",
latitude: "37.798137"
}
},